$GNRMC,064545.20,A,3111.36800,N,12055.85788,E,0.065,,060317,,,D*69

$GNVTG,,T,,M,0.065,N,0.121,K,D*39

$GNGGA,064545.20,3111.36800,N,12055.85788,E,2,12,1.49,-5.9,M,8.6,M,,0000*53

$GNGSA,A,3,14,27,42,16,25,29,32,50,26,,,,2.36,1.49,1.83*10

$GNGSA,A,3,87,88,67,,,,,,,,,,2.36,1.49,1.83*13

$GPGSV,4,1,14,03,22,286,25,04,76,337,23,14,63,144,37,16,48,242,35*7E

$GPGSV,4,2,14,22,24,264,,23,12,318,,25,08,047,12,26,74,288,17*78

$GPGSV,4,3,14,27,11,189,33,29,30,058,22,31,56,036,08,32,36,147,43*76

$GPGSV,4,4,14,42,45,139,33,50,45,139,34*78

$GLGSV,3,1,09,67,39,205,35,68,48,287,14,69,12,330,,77,34,036,*60

$GLGSV,3,2,09,78,43,319,,79,18,282,,86,04,024,,87,29,074,08*62

$GLGSV,3,3,09,88,24,129,25*57

$GNGLL,3111.36800,N,12055.85788,E,064545.20,A,D*70

$GNRMC,064545.30,A,3111.36797,N,12055.85787,E,0.028,,060317,,,D*6F

$GNVTG,,T,,M,0.028,N,0.053,K,D*34

$GNGGA,064545.30,3111.36797,N,12055.85787,E,2,12,1.49,-5.8,M,8.6,M,,0000*5D

$GNGSA,A,3,14,27,42,16,25,29,32,50,26,,,,2.36,1.49,1.83*10

$GNGSA,A,3,87,88,67,,,,,,,,,,2.36,1.49,1.83*13

$GPGSV,4,1,14,03,22,286,25,04,76,337,23,14,63,144,37,16,48,242,35*7E

$GPGSV,4,2,14,22,24,264,,23,12,318,,25,08,047,12,26,74,288,17*78

$GPGSV,4,3,14,27,11,189,33,29,30,058,23,31,56,036,08,32,36,147,43*77

$GPGSV,4,4,14,42,45,139,33,50,45,139,34*78

$GLGSV,3,1,09,67,39,205,35,68,48,287,14,69,12,330,,77,34,036,*60

$GLGSV,3,2,09,78,43,319,,79,18,282,,86,04,024,,87,29,074,08*62

$GLGSV,3,3,09,88,24,129,25*57

$GNGLL,3111.36797,N,12055.85787,E,064545.30,A,D*7F

$GNRMC,064545.40,A,3111.36801,N,12055.85788,E,0.082,,060317,,,D*67

$GNVTG,,T,,M,0.082,N,0.153,K,D*35

$GNGGA,064545.40,3111.36801,N,12055.85788,E,2,12,1.49,-5.9,M,8.6,M,,0000*54

$GNGSA,A,3,14,27,42,16,25,29,32,50,26,,,,2.36,1.49,1.83*10

$GNGSA,A,3,87,88,67,,,,,,,,,,2.36,1.49,1.83*13

$GPGSV,4,1,14,03,22,286,25,04,76,337,23,14,63,144,37,16,48,242,35*7E

$GPGSV,4,2,14,22,24,264,,23,12,318,,25,08,047,12,26,74,288,17*78

$GPGSV,4,3,14,27,11,189,33,29,30,058,23,31,56,036,08,32,36,147,43*77

$GPGSV,4,4,14,42,45,139,33,50,45,139,34*78

$GLGSV,3,1,09,67,39,205,35,68,48,287,14,69,12,330,,77,34,036,*60

$GLGSV,3,2,09,78,43,319,,79,18,282,,86,04,024,,87,29,074,08*62

$GLGSV,3,3,09,88,24,129,25*57

$GNGLL,3111.36801,N,12055.85788,E,064545.40,A,D*77

$GNRMC,064545.50,A,3111.36800,N,12055.85788,E,0.016,,060317,,,D*6A

$GNVTG,,T,,M,0.016,N,0.030,K,D*3C

$GNGGA,064545.50,3111.36800,N,12055.85788,E,2,12,1.49,-5.9,M,8.6,M,,0000*54

$GNGSA,A,3,14,27,42,16,25,29,32,50,26,,,,2.36,1.49,1.83*10

$GNGSA,A,3,87,88,67,,,,,,,,,,2.36,1.49,1.83*13

$GPGSV,4,1,14,03,22,286,25,04,76,337,24,14,63,144,37,16,48,242,35*79

$GPGSV,4,2,14,22,24,264,,23,12,318,,25,08,047,12,26,74,288,17*78

$GPGSV,4,3,14,27,11,189,33,29,30,058,23,31,56,036,08,32,36,147,43*77

$GPGSV,4,4,14,42,45,139,33,50,45,139,34*78

$GLGSV,3,1,09,67,39,205,35,68,48,287,14,69,12,330,,77,34,036,*60

$GLGSV,3,2,09,78,43,319,,79,18,282,,86,04,024,,87,29,074,08*62

$GLGSV,3,3,09,88,24,129,25*57

$GNGLL,3111.36800,N,12055.85788,E,064545.50,A,D*77

$GNRMC,064545.60,A,3111.36800,N,12055.85788,E,0.004,,060317,,,D*6A

$GNVTG,,T,,M,0.004,N,0.008,K,D*34

$GNGGA,064545.60,3111.36800,N,12055.85788,E,2,12,1.49,-5.9,M,8.6,M,,0000*57

$GNGSA,A,3,14,27,42,16,25,29,32,50,26,,,,2.36,1.49,1.83*10

$GNGSA,A,3,87,88,67,,,,,,,,,,2.36,1.49,1.83*13

$GPGSV,4,1,14,03,22,286,25,04,76,337,24,14,63,144,37,16,48,242,35*79

$GPGSV,4,2,14,22,24,264,,23,12,318,,25,08,047,12,26,74,288,17*78

$GPGSV,4,3,14,27,11,189,33,29,30,058,23,31,56,036,09,32,36,147,43*76

$GPGSV,4,4,14,42,45,139,33,50,45,139,34*78

$GLGSV,3,1,09,67,39,205,35,68,48,287,14,69,12,330,,77,34,036,*60

$GLGSV,3,2,09,78,43,319,,79,18,282,,86,04,024,,87,29,074,08*62

$GLGSV,3,3,09,88,24,129,26*54

$GNGLL,3111.36800,N,12055.85788,E,064545.60,A,D*74

$GNRMC,064545.70,A,3111.36800,N,12055.85787,E,0.034,,060317,,,D*67

$GNVTG,,T,,M,0.034,N,0.063,K,D*3A

$GNGGA,064545.70,3111.36800,N,12055.85787,E,2,12,1.49,-5.9,M,8.6,M,,0000*59

$GNGSA,A,3,14,27,42,16,25,29,32,50,26,,,,2.36,1.49,1.83*10

$GNGSA,A,3,87,88,67,,,,,,,,,,2.36,1.49,1.83*13

$GPGSV,4,1,14,03,22,286,25,04,76,337,24,14,63,144,37,16,48,242,35*79

$GPGSV,4,2,14,22,24,264,,23,12,318,,25,08,047,13,26,74,288,17*79

$GPGSV,4,3,14,27,11,189,33,29,30,058,23,31,56,036,09,32,36,147,43*76

$GPGSV,4,4,14,42,45,139,33,50,45,139,34*78

$GLGSV,3,1,09,67,39,205,35,68,48,287,13,69,12,330,,77,34,036,*67

$GLGSV,3,2,09,78,43,319,,79,18,282,,86,04,024,,87,29,074,08*62

$GLGSV,3,3,09,88,24,129,26*54

$GNGLL,3111.36800,N,12055.85787,E,064545.70,A,D*7A

$GNRMC,064545.80,A,3111.36803,N,12055.85788,E,0.033,,060317,,,D*63

$GNVTG,,T,,M,0.033,N,0.062,K,D*3C

$GNGGA,064545.80,3111.36803,N,12055.85788,E,2,12,3.53,-6.0,M,8.6,M,,0000*59

$GNGSA,A,3,14,27,42,16,25,29,32,50,26,,,,4.79,3.53,3.24*1B

$GNGSA,A,3,87,88,67,,,,,,,,,,4.79,3.53,3.24*18

$GPGSV,4,1,14,03,22,286,25,04,76,337,24,14,63,144,37,16,48,242,35*79

$GPGSV,4,2,14,22,24,264,,23,12,318,,25,08,047,13,26,74,288,17*79

$GPGSV,4,3,14,27,11,189,33,29,30,058,23,31,56,036,09,32,36,147,43*76

$GPGSV,4,4,14,42,45,139,33,50,45,139,34*78

$GLGSV,3,1,09,67,39,205,35,68,48,287,14,69,12,330,,77,34,036,*60

$GLGSV,3,2,09,78,43,319,,79,18,282,,86,04,024,,87,29,074,11*6A

$GLGSV,3,3,09,88,24,129,26*54

$GNGLL,3111.36803,N,12055.85788,E,064545.80,A,D*79

$GNRMC,064545.90,A,3111.36801,N,12055.85788,E,0.069,,060317,,,D*6F

$GNVTG,,T,,M,0.069,N,0.127,K,D*33

$GNGGA,064545.90,3111.36801,N,12055.85788,E,2,12,1.48,-5.9,M,8.6,M,,0000*58

$GNGSA,A,3,14,27,42,16,25,29,32,50,26,,,,2.36,1.48,1.83*11

$GNGSA,A,3,87,88,67,,,,,,,,,,2.36,1.48,1.83*12

$GPGSV,4,1,14,03,22,286,25,04,76,337,24,14,63,144,37,16,48,242,35*79

$GPGSV,4,2,14,22,24,264,,23,12,318,,25,08,047,13,26,74,288,17*79

$GPGSV,4,3,14,27,11,189,33,29,30,058,23,31,56,036,10,32,36,147,43*7E

$GPGSV,4,4,14,42,45,139,33,50,45,139,34*78

$GLGSV,3,1,09,67,39,205,35,68,48,287,14,69,12,330,,77,34,036,*60

$GLGSV,3,2,09,78,43,319,,79,18,282,,86,04,024,,87,29,074,11*6A

$GLGSV,3,3,09,88,24,129,26*54

$GNGLL,3111.36801,N,12055.85788,E,064545.90,A,D*7A

$GNRMC,064546.00,A,3111.36803,N,12055.85788,E,0.072,,060317,,,D*6D

$GNVTG,,T,,M,0.072,N,0.134,K,D*3B

$GNGGA,064546.00,3111.36803,N,12055.85788,E,2,12,1.48,-6.0,M,8.6,M,,0000*5A

$GNGSA,A,3,14,27,42,16,25,29,31,32,50,26,,,2.36,1.48,1.83*13

$GNGSA,A,3,87,88,67,,,,,,,,,,2.36,1.48,1.83*12

$GPGSV,4,1,14,03,22,286,25,04,76,337,24,14,63,144,37,16,48,242,35*79

$GPGSV,4,2,14,22,24,264,,23,12,318,,25,08,047,12,26,74,288,17*78

$GPGSV,4,3,14,27,11,189,33,29,30,058,23,31,56,036,10,32,36,147,43*7E

$GPGSV,4,4,14,42,45,139,33,50,45,139,34*78

$GLGSV,3,1,09,67,39,205,35,68,48,287,14,69,12,330,,77,34,036,*60

$GLGSV,3,2,09,78,43,319,,79,18,282,,86,04,024,,87,29,074,11*6A

$GLGSV,3,3,09,88,24,129,27*55

$GNGLL,3111.36803,N,12055.85788,E,064546.00,A,D*72

$GNRMC,064546.10,A,3111.36804,N,12055.85788,E,0.074,,060317,,,D*6D

$GNVTG,,T,,M,0.074,N,0.137,K,D*3E

$GNGGA,064546.10,3111.36804,N,12055.85788,E,2,12,1.48,-6.0,M,8.6,M,,0000*5C

$GNGSA,A,3,14,27,42,16,25,29,31,32,50,26,,,2.36,1.48,1.83*13

$GNGSA,A,3,87,88,67,,,,,,,,,,2.36,1.48,1.83*12

$GPGSV,4,1,14,03,22,286,25,04,76,337,24,14,63,144,37,16,48,242,35*79

$GPGSV,4,2,14,22,24,264,,23,12,318,,25,08,047,13,26,74,288,17*79

$GPGSV,4,3,14,27,11,189,33,29,30,058,23,31,56,036,10,32,36,147,43*7E

$GPGSV,4,4,14,42,45,139,33,50,45,139,34*78

$GLGSV,3,1,09,67,39,205,35,68,48,287,14,69,12,330,,77,34,036,*60

$GLGSV,3,2,09,78,43,319,,79,18,282,,86,04,024,,87,29,074,11*6A

$GLGSV,3,3,09,88,24,129,27*55

$GNGLL,3111.36804,N,12055.85788,E,064546.10,A,D*74

$GNRMC,064546.20,A,3111.36805,N,12055.85787,E,0.080,,060317,,,D*6B

$GNVTG,,T,,M,0.080,N,0.148,K,D*3D

$GNGGA,064546.20,3111.36805,N,12055.85787,E,2,12,1.48,-6.0,M,8.6,M,,0000*51

$GNGSA,A,3,14,27,42,16,25,29,31,32,50,26,,,2.36,1.48,1.83*13

$GNGSA,A,3,87,88,67,,,,,,,,,,2.36,1.48,1.83*12

$GPGSV,4,1,14,03,22,286,25,04,76,337,24,14,63,144,37,16,48,242,35*79

$GPGSV,4,2,14,22,24,264,,23,12,318,,25,08,047,13,26,74,288,17*79

$GPGSV,4,3,14,27,11,189,33,29,30,058,23,31,56,036,11,32,36,147,43*7F

$GPGSV,4,4,14,42,45,139,33,50,45,139,34*78

$GLGSV,3,1,09,67,39,205,35,68,48,287,14,69,12,330,,77,34,036,*60

$GLGSV,3,2,09,78,43,319,,79,18,282,,86,04,024,,87,29,074,11*6A

$GLGSV,3,3,09,88,24,129,27*55

$GNGLL,3111.36805,N,12055.85787,E,064546.20,A,D*79

$GNRMC,064546.30,A,3111.36804,N,12055.85787,E,0.080,,060317,,,D*6B

$GNVTG,,T,,M,0.080,N,0.148,K,D*3D

$GNGGA,064546.30,3111.36804,N,12055.85787,E,2,12,1.48,-6.0,M,8.6,M,,0000*51

$GNGSA,A,3,14,27,42,16,25,29,31,32,50,26,,,2.36,1.48,1.83*13

$GNGSA,A,3,87,88,67,,,,,,,,,,2.36,1.48,1.83*12

$GPGSV,4,1,14,03,22,286,25,04,76,337,24,14,63,144,37,16,48,242,35*79

$GPGSV,4,2,14,22,24,264,,23,12,318,,25,08,047,13,26,74,288,17*79

$GPGSV,4,3,14,27,11,189,33,29,30,058,23,31,56,036,11,32,36,147,43*7F

$GPGSV,4,4,14,42,45,139,33,50,45,139,34*78

$GLGSV,3,1,09,67,39,205,35,68,48,287,14,69,12,330,,77,34,036,*60

$GLGSV,3,2,09,78,43,319,,79,18,282,,86,04,024,,87,29,074,09*63

$GLGSV,3,3,09,88,24,129,27*55

$GNGLL,3111.36804,N,12055.85787,E,064546.30,A,D*79

$GNRMC,064546.40,A,3111.36807,N,12055.85788,E,0.065,,060317,,,D*6B

$GNVTG,,T,,M,0.065,N,0.120,K,D*38

$GNGGA,064546.40,3111.36807,N,12055.85788,E,2,12,1.48,-6.1,M,8.6,M,,0000*5B

$GNGSA,A,3,14,27,42,16,25,29,31,32,50,26,,,2.36,1.48,1.83*13

$GNGSA,A,3,87,88,67,,,,,,,,,,2.36,1.48,1.83*12

$GPGSV,4,1,14,03,22,286,25,04,76,337,24,14,63,144,37,16,48,242,35*79

$GPGSV,4,2,14,22,24,264,,23,12,318,,25,08,047,13,26,74,288,17*79

$GPGSV,4,3,14,27,11,189,33,29,30,058,23,31,56,036,12,32,36,147,43*7C

$GPGSV,4,4,14,42,45,139,33,50,45,139,34*78

$GLGSV,3,1,09,67,39,205,35,68,48,287,14,69,12,330,,77,34,036,*60

$GLGSV,3,2,09,78,43,319,,79,18,282,,86,04,024,,87,29,074,09*63

$GLGSV,3,3,09,88,24,129,27*55

$GNGLL,3111.36807,N,12055.85788,E,064546.40,A,D*72

$GNRMC,064546.50,A,3111.36804,N,12055.85787,E,0.052,,060317,,,D*62

$GNVTG,,T,,M,0.052,N,0.097,K,D*31

$GNGGA,064546.50,3111.36804,N,12055.85787,E,2,12,1.48,-6.0,M,8.6,M,,0000*57

$GNGSA,A,3,14,27,42,16,25,29,31,32,50,26,,,2.36,1.48,1.83*13

$GNGSA,A,3,87,88,67,,,,,,,,,,2.36,1.48,1.83*12

$GPGSV,4,1,14,03,22,286,25,04,76,337,24,14,63,144,37,16,48,242,35*79

$GPGSV,4,2,14,22,24,264,,23,12,318,,25,08,047,12,26,74,288,17*78

$GPGSV,4,3,14,27,11,189,33,29,30,058,23,31,56,036,12,32,36,147,43*7C

$GPGSV,4,4,14,42,45,139,33,50,45,139,34*78

$GLGSV,3,1,09,67,39,205,35,68,48,287,14,69,12,330,,77,34,036,*60

$GLGSV,3,2,09,78,43,319,,79,18,282,,86,04,024,,87,29,074,09*63

$GLGSV,3,3,09,88,24,129,27*55

$GNGLL,3111.36804,N,12055.85787,E,064546.50,A,D*7F

$GNRMC,064546.60,A,3111.36805,N,12055.85788,E,0.069,,060317,,,D*67

$GNVTG,,T,,M,0.069,N,0.128,K,D*3C

$GNGGA,064546.60,3111.36805,N,12055.85788,E,2,12,1.48,-6.0,M,8.6,M,,0000*5A

$GNGSA,A,3,14,27,42,16,25,29,31,32,50,26,,,2.36,1.48,1.83*13

$GNGSA,A,3,87,88,67,,,,,,,,,,2.36,1.48,1.83*12

$GPGSV,4,1,14,03,22,286,25,04,76,337,24,14,63,144,37,16,48,242,35*79

$GPGSV,4,2,14,22,24,264,,23,12,318,,25,08,047,12,26,74,288,16*79

$GPGSV,4,3,14,27,11,189,33,29,30,058,23,31,56,036,12,32,36,147,43*7C

$GPGSV,4,4,14,42,45,139,33,50,45,139,34*78

$GLGSV,3,1,09,67,39,205,35,68,48,287,14,69,12,330,,77,34,036,*60

$GLGSV,3,2,09,78,43,319,,79,18,282,,86,04,024,,87,29,074,09*63

$GLGSV,3,3,09,88,24,129,28*5A

$GNGLL,3111.36805,N,12055.85788,E,064546.60,A,D*72

$GNRMC,064546.70,A,3111.36805,N,12055.85787,E,0.079,,060317,,,D*68

$GNVTG,,T,,M,0.079,N,0.147,K,D*34

$GNGGA,064546.70,3111.36805,N,12055.85787,E,2,12,1.48,-6.0,M,8.6,M,,0000*54

$GNGSA,A,3,14,27,42,16,25,29,31,32,50,26,,,2.36,1.48,1.83*13

$GNGSA,A,3,87,88,67,,,,,,,,,,2.36,1.48,1.83*12

$GPGSV,4,1,14,03,22,286,25,04,76,337,24,14,63,144,37,16,48,242,35*79

$GPGSV,4,2,14,22,24,264,,23,12,318,,25,08,047,12,26,74,288,16*79

$GPGSV,4,3,14,27,11,189,33,29,30,058,23,31,56,036,12,32,36,147,43*7C

$GPGSV,4,4,14,42,45,139,33,50,45,139,34*78

$GLGSV,3,1,09,67,39,205,35,68,48,287,15,69,12,330,,77,34,036,*61

$GLGSV,3,2,09,78,43,319,,79,18,282,,86,04,024,,87,29,074,12*69

$GLGSV,3,3,09,88,24,129,28*5A

$GNGLL,3111.36805,N,12055.85787,E,064546.70,A,D*7C

$GNRMC,064546.80,A,3111.36806,N,12055.85787,E,0.057,,060317,,,D*68

$GNVTG,,T,,M,0.057,N,0.106,K,D*3D

$GNGGA,064546.80,3111.36806,N,12055.85787,E,2,12,1.48,-6.1,M,8.6,M,,0000*59

$GNGSA,A,3,14,27,42,16,25,29,31,32,50,26,,,2.36,1.48,1.83*13

$GNGSA,A,3,87,88,67,,,,,,,,,,2.36,1.48,1.83*12

$GPGSV,4,1,14,03,22,286,25,04,76,337,24,14,63,144,37,16,48,242,35*79

$GPGSV,4,2,14,22,24,264,,23,12,318,,25,08,047,12,26,74,288,16*79

$GPGSV,4,3,14,27,11,189,33,29,30,058,23,31,56,036,12,32,36,147,43*7C

$GPGSV,4,4,14,42,45,139,33,50,45,139,34*78

$GLGSV,3,1,09,67,39,205,35,68,48,287,14,69,12,330,,77,34,036,*60

$GLGSV,3,2,09,78,43,319,,79,18,282,,86,04,024,,87,29,074,12*69

$GLGSV,3,3,09,88,24,129,28*5A

$GNGLL,3111.36806,N,12055.85787,E,064546.80,A,D*70

$GNRMC,064546.90,A,3111.36806,N,12055.85787,E,0.063,,060317,,,D*6E

$GNVTG,,T,,M,0.063,N,0.117,K,D*3A

$GNGGA,064546.90,3111.36806,N,12055.85787,E,2,12,1.48,-6.1,M,8.6,M,,0000*58

$GNGSA,A,3,14,27,42,16,25,29,31,32,50,26,,,2.36,1.48,1.83*13

$GNGSA,A,3,87,88,67,,,,,,,,,,2.36,1.48,1.83*12

$GPGSV,4,1,14,03,22,286,25,04,76,337,24,14,63,144,37,16,48,242,35*79

$GPGSV,4,2,14,22,24,264,,23,12,318,,25,08,047,12,26,74,288,16*79

$GPGSV,4,3,14,27,11,189,33,29,30,058,23,31,56,036,12,32,36,147,43*7C

$GPGSV,4,4,14,42,45,139,33,50,45,139,34*78

$GLGSV,3,1,09,67,39,205,35,68,48,287,14,69,12,330,,77,34,036,*60

$GLGSV,3,2,09,78,43,319,,79,18,282,,86,04,024,,87,29,074,12*69

$GLGSV,3,3,09,88,24,129,28*5A

$GNGLL,3111.36806,N,12055.85787,E,064546.90,A,D*71

$GNRMC,064547.00,A,3111.36807,N,12055.85787,E,0.065,,060317,,,D*61

$GNVTG,,T,,M,0.065,N,0.121,K,D*39

$GNGGA,064547.00,3111.36807,N,12055.85787,E,2,12,1.48,-6.1,M,8.6,M,,0000*51

$GNGSA,A,3,14,27,42,16,25,29,31,32,50,26,,,2.36,1.48,1.83*13

$GNGSA,A,3,87,88,67,,,,,,,,,,2.36,1.48,1.83*12

$GPGSV,4,1,14,03,22,286,25,04,76,337,24,14,63,144,37,16,48,242,35*79

$GPGSV,4,2,14,22,24,264,,23,12,318,,25,08,047,12,26,74,288,16*79

$GPGSV,4,3,14,27,11,189,33,29,30,058,23,31,56,036,12,32,36,147,43*7C

$GPGSV,4,4,14,42,45,139,33,50,45,139,34*78

$GLGSV,3,1,09,67,39,205,35,68,48,287,14,69,12,330,,77,34,036,*60

$GLGSV,3,2,09,78,43,319,,79,18,282,,86,04,024,,87,29,074,12*69

$GLGSV,3,3,09,88,24,129,28*5A

$GNGLL,3111.36807,N,12055.85787,E,064547.00,A,D*78

$GNRMC,064547.10,A,3111.36806,N,12055.85787,E,0.063,,060317,,,D*67

$GNVTG,,T,,M,0.063,N,0.117,K,D*3A

$GNGGA,064547.10,3111.36806,N,12055.85787,E,2,12,1.48,-6.1,M,8.6,M,,0000*51

$GNGSA,A,3,14,27,42,16,25,29,31,32,50,26,,,2.36,1.48,1.83*13

$GNGSA,A,3,87,88,67,,,,,,,,,,2.36,1.48,1.83*12

$GPGSV,4,1,14,03,22,286,25,04,76,337,25,14,63,144,37,16,48,242,35*78

$GPGSV,4,2,14,22,24,264,,23,12,318,,25,08,047,12,26,74,288,16*79

$GPGSV,4,3,14,27,11,189,33,29,30,058,23,31,56,036,12,32,36,147,43*7C

$GPGSV,4,4,14,42,45,139,33,50,45,139,35*79

$GLGSV,3,1,09,67,39,205,35,68,48,287,14,69,12,330,,77,34,036,*60

$GLGSV,3,2,09,78,43,319,,79,18,282,,86,04,024,,87,29,074,10*6B

$GLGSV,3,3,09,88,24,129,28*5A

$GNGLL,3111.36806,N,12055.85787,E,064547.10,A,D*78

$GNRMC,064547.20,A,3111.36807,N,12055.85787,E,0.047,,060317,,,D*63

$GNVTG,,T,,M,0.047,N,0.088,K,D*3B

$GNGGA,064547.20,3111.36807,N,12055.85787,E,2,12,1.48,-6.1,M,8.6,M,,0000*53

$GNGSA,A,3,14,27,42,16,25,29,31,32,50,26,,,2.36,1.48,1.83*13

$GNGSA,A,3,87,88,67,,,,,,,,,,2.36,1.48,1.83*12

$GPGSV,4,1,14,03,22,286,25,04,76,337,25,14,63,144,37,16,48,242,35*78

$GPGSV,4,2,14,22,24,264,,23,12,318,,25,08,047,12,26,74,288,16*79

$GPGSV,4,3,14,27,11,189,32,29,30,058,23,31,56,036,12,32,36,147,43*7D

$GPGSV,4,4,14,42,45,139,33,50,45,139,35*79

$GLGSV,3,1,09,67,39,205,35,68,48,287,14,69,12,330,,77,34,036,*60

$GLGSV,3,2,09,78,43,319,,79,18,282,,86,04,024,,87,29,074,10*6B

$GLGSV,3,3,09,88,24,129,29*5B

$GNGLL,3111.36807,N,12055.85787,E,064547.20,A,D*7A

$GNRMC,064547.30,A,3111.36806,N,12055.85787,E,0.009,,060317,,,D*69

$GNVTG,,T,,M,0.009,N,0.017,K,D*37

$GNGGA,064547.30,3111.36806,N,12055.85787,E,2,12,1.48,-6.1,M,8.6,M,,0000*53

$GNGSA,A,3,14,27,42,16,25,29,31,32,50,26,,,2.36,1.48,1.83*13

$GNGSA,A,3,87,88,67,,,,,,,,,,2.36,1.48,1.83*12

$GPGSV,4,1,14,03,22,286,25,04,76,337,25,14,63,144,37,16,48,242,35*78

$GPGSV,4,2,14,22,24,264,,23,12,318,,25,08,047,12,26,74,288,16*79

$GPGSV,4,3,14,27,11,189,32,29,30,058,23,31,56,036,12,32,36,147,43*7D

$GPGSV,4,4,14,42,45,139,33,50,45,139,34*78

$GLGSV,3,1,09,67,39,205,35,68,48,287,14,69,12,330,,77,34,036,*60

$GLGSV,3,2,09,78,43,319,,79,18,282,,86,04,024,,87,29,074,10*6B

$GLGSV,3,3,09,88,24,129,29*5B

$GNGLL,3111.36806,N,12055.85787,E,064547.30,A,D*7A

$GNRMC,064547.40,A,3111.36806,N,12055.85787,E,0.016,,060317,,,D*60

$GNVTG,,T,,M,0.016,N,0.030,K,D*3C

$GNGGA,064547.40,3111.36806,N,12055.85787,E,2,12,1.48,-6.1,M,8.6,M,,0000*54

$GNGSA,A,3,14,27,42,16,25,29,31,32,50,26,,,2.36,1.48,1.83*13

$GNGSA,A,3,87,88,67,,,,,,,,,,2.36,1.48,1.83*12

$GPGSV,4,1,14,03,22,286,25,04,76,337,25,14,63,144,37,16,48,242,35*78

$GPGSV,4,2,14,22,24,264,,23,12,318,,25,08,047,12,26,74,288,16*79

$GPGSV,4,3,14,27,11,189,32,29,30,058,23,31,56,036,12,32,36,147,43*7D

$GPGSV,4,4,14,42,45,139,33,50,45,139,34*78

$GLGSV,3,1,09,67,39,205,35,68,48,287,14,69,12,330,,77,34,036,*60

$GLGSV,3,2,09,78,43,319,,79,18,282,,86,04,024,,87,29,074,10*6B

$GLGSV,3,3,09,88,24,129,29*5B

$GNGLL,3111.36806,N,12055.85787,E,064547.40,A,D*7D

$GNRMC,064547.50,A,3111.36808,N,12055.85788,E,0.021,,060317,,,D*64

$GNVTG,,T,,M,0.021,N,0.038,K,D*30

$GNGGA,064547.50,3111.36808,N,12055.85788,E,2,12,1.48,-6.1,M,8.6,M,,0000*54

$GNGSA,A,3,14,27,42,16,25,29,31,32,50,26,,,2.36,1.48,1.83*13

$GNGSA,A,3,87,88,67,,,,,,,,,,2.36,1.48,1.83*12

$GPGSV,4,1,14,03,22,286,25,04,76,337,25,14,63,144,37,16,48,242,35*78

$GPGSV,4,2,14,22,24,264,,23,12,318,,25,08,047,13,26,74,288,16*78

$GPGSV,4,3,14,27,11,189,32,29,30,058,23,31,56,036,12,32,36,147,43*7D

$GPGSV,4,4,14,42,45,139,33,50,45,139,34*78

$GLGSV,3,1,09,67,39,205,36,68,48,287,15,69,12,330,,77,34,036,*62

$GLGSV,3,2,09,78,43,319,,79,18,282,,86,04,024,,87,29,074,08*62

$GLGSV,3,3,09,88,24,129,29*5B

$GNGLL,3111.36808,N,12055.85788,E,064547.50,A,D*7D

$GNRMC,064547.60,A,3111.36808,N,12055.85788,E,0.017,,060317,,,D*62

$GNVTG,,T,,M,0.017,N,0.032,K,D*3F

$GNGGA,064547.60,3111.36808,N,12055.85788,E,2,12,1.48,-6.1,M,8.6,M,,0000*57

$GNGSA,A,3,14,27,42,16,25,29,31,32,50,26,,,2.36,1.48,1.83*13

$GNGSA,A,3,87,88,67,,,,,,,,,,2.36,1.48,1.83*12

$GPGSV,4,1,14,03,22,286,25,04,76,337,25,14,63,144,37,16,48,242,35*78

$GPGSV,4,2,14,22,24,264,,23,12,318,,25,08,047,13,26,74,288,16*78

$GPGSV,4,3,14,27,11,189,32,29,30,058,23,31,56,036,12,32,36,147,43*7D

$GPGSV,4,4,14,42,45,139,33,50,45,139,34*78

$GLGSV,3,1,09,67,39,205,36,68,48,287,15,69,12,330,,77,34,036,*62

$GLGSV,3,2,09,78,43,319,,79,18,282,,86,04,024,,87,29,074,08*62

$GLGSV,3,3,09,88,24,129,29*5B

$GNGLL,3111.36808,N,12055.85788,E,064547.60,A,D*7E

$GNRMC,064547.70,A,3111.36808,N,12055.85788,E,0.019,,060317,,,D*6D

$GNVTG,,T,,M,0.019,N,0.036,K,D*35

$GNGGA,064547.70,3111.36808,N,12055.85788,E,2,12,1.48,-6.1,M,8.6,M,,0000*56

$GNGSA,A,3,14,27,42,16,25,29,31,32,50,26,,,2.36,1.48,1.83*13

$GNGSA,A,3,87,88,67,,,,,,,,,,2.36,1.48,1.83*12

$GPGSV,4,1,14,03,22,286,25,04,76,337,25,14,63,144,37,16,48,242,35*78

$GPGSV,4,2,14,22,24,264,,23,12,318,,25,08,047,12,26,74,288,15*7A

$GPGSV,4,3,14,27,11,189,33,29,30,058,23,31,56,036,12,32,36,147,43*7C

$GPGSV,4,4,14,42,45,139,33,50,45,139,34*78

$GLGSV,3,1,09,67,39,205,36,68,48,287,15,69,12,330,,77,34,036,*62

$GLGSV,3,2,09,78,43,319,,79,18,282,,86,04,024,,87,29,074,08*62

$GLGSV,3,3,09,88,24,129,29*5B

$GNGLL,3111.36808,N,12055.85788,E,064547.70,A,D*7F

$GNRMC,064547.80,A,3111.36808,N,12055.85788,E,0.041,,060317,,,D*6F

$GNVTG,,T,,M,0.041,N,0.075,K,D*3F

$GNGGA,064547.80,3111.36808,N,12055.85788,E,2,12,1.48,-6.1,M,8.6,M,,0000*59

$GNGSA,A,3,14,27,42,16,25,29,31,32,50,26,,,2.36,1.48,1.83*13

$GNGSA,A,3,87,88,67,,,,,,,,,,2.36,1.48,1.83*12

$GPGSV,4,1,14,03,22,286,25,04,76,337,25,14,63,144,37,16,48,242,36*7B

$GPGSV,4,2,14,22,24,264,,23,12,318,,25,08,047,13,26,74,288,15*7B

$GPGSV,4,3,14,27,11,189,33,29,30,058,23,31,56,036,12,32,36,147,43*7C

$GPGSV,4,4,14,42,45,139,33,50,45,139,34*78

$GLGSV,3,1,09,67,39,205,36,68,48,287,15,69,12,330,,77,34,036,*62

$GLGSV,3,2,09,78,43,319,,79,18,282,,86,04,024,,87,29,074,08*62

$GLGSV,3,3,09,88,24,129,29*5B

$GNGLL,3111.36808,N,12055.85788,E,064547.80,A,D*70

$GNRMC,064547.90,A,3111.36809,N,12055.85788,E,0.021,,060317,,,D*69

$GNVTG,,T,,M,0.021,N,0.039,K,D*31

$GNGGA,064547.90,3111.36809,N,12055.85788,E,2,12,1.48,-6.1,M,8.6,M,,0000*59

$GNGSA,A,3,14,27,42,16,25,29,31,32,50,26,,,2.36,1.48,1.83*13

$GNGSA,A,3,87,88,67,,,,,,,,,,2.36,1.48,1.83*12

$GPGSV,4,1,14,03,22,286,25,04,76,337,25,14,63,144,37,16,48,242,36*7B

$GPGSV,4,2,14,22,24,264,,23,12,318,,25,08,047,13,26,74,288,15*7B

$GPGSV,4,3,14,27,11,189,33,29,30,058,23,31,56,036,12,32,36,147,43*7C

$GPGSV,4,4,14,42,45,139,33,50,45,139,34*78

$GLGSV,3,1,09,67,39,205,36,68,48,287,15,69,12,330,,77,34,036,*62

$GLGSV,3,2,09,78,43,319,,79,18,282,,86,04,024,,87,29,074,10*6B

$GLGSV,3,3,09,88,24,129,29*5B

$GNGLL,3111.36809,N,12055.85788,E,064547.90,A,D*70

$GNRMC,064548.00,A,3111.36808,N,12055.85788,E,0.017,,060317,,,D*6B

$GNVTG,,T,,M,0.017,N,0.032,K,D*3F

$GNGGA,064548.00,3111.36808,N,12055.85788,E,2,12,1.48,-6.1,M,8.6,M,,0000*5E

$GNGSA,A,3,14,27,42,16,25,29,31,32,50,26,,,2.36,1.48,1.83*13

$GNGSA,A,3,87,88,67,,,,,,,,,,2.36,1.48,1.83*12

$GPGSV,4,1,14,03,22,286,25,04,76,337,25,14,63,144,37,16,48,242,36*7B

$GPGSV,4,2,14,22,24,264,,23,12,318,,25,08,047,13,26,74,288,15*7B

$GPGSV,4,3,14,27,11,189,32,29,30,058,23,31,56,036,12,32,36,147,43*7D

$GPGSV,4,4,14,42,45,139,33,50,45,139,34*78

$GLGSV,3,1,09,67,39,205,36,68,48,287,15,69,12,330,,77,34,036,*62

$GLGSV,3,2,09,78,43,319,,79,18,282,,86,04,024,,87,29,074,10*6B

$GLGSV,3,3,09,88,24,129,29*5B

$GNGLL,3111.36808,N,12055.85788,E,064548.00,A,D*77

$GNRMC,064548.10,A,3111.36808,N,12055.85788,E,0.032,,060317,,,D*6D

$GNVTG,,T,,M,0.032,N,0.060,K,D*3F

$GNGGA,064548.10,3111.36808,N,12055.85788,E,2,12,1.48,-6.1,M,8.6,M,,0000*5F

$GNGSA,A,3,14,27,42,16,25,29,31,32,50,26,,,2.36,1.48,1.83*13

$GNGSA,A,3,87,88,67,,,,,,,,,,2.36,1.48,1.83*12

$GPGSV,4,1,14,03,22,286,25,04,76,337,25,14,63,144,37,16,48,242,36*7B

$GPGSV,4,2,14,22,24,264,,23,12,318,,25,08,047,13,26,74,288,15*7B

$GPGSV,4,3,14,27,11,189,33,29,30,058,23,31,56,036,12,32,36,147,43*7C

$GPGSV,4,4,14,42,45,139,33,50,45,139,34*78

$GLGSV,3,1,09,67,39,205,36,68,48,287,15,69,12,330,,77,34,036,*62

$GLGSV,3,2,09,78,43,319,,79,18,282,,86,04,024,,87,29,074,10*6B

$GLGSV,3,3,09,88,24,129,29*5B

$GNGLL,3111.36808,N,12055.85788,E,064548.10,A,D*76

$GNRMC,064548.20,A,3111.36809,N,12055.85789,E,0.057,,060317,,,D*6D

$GNVTG,,T,,M,0.057,N,0.105,K,D*3E

$GNGGA,064548.20,3111.36809,N,12055.85789,E,2,12,1.48,-6.1,M,8.6,M,,0000*5C

$GNGSA,A,3,14,27,42,16,25,29,31,32,50,26,,,2.36,1.48,1.83*13

$GNGSA,A,3,87,88,67,,,,,,,,,,2.36,1.48,1.83*12

$GPGSV,4,1,14,03,22,286,25,04,76,337,25,14,63,144,37,16,48,242,36*7B

$GPGSV,4,2,14,22,24,264,,23,12,318,,25,08,047,13,26,74,288,15*7B

$GPGSV,4,3,14,27,11,189,33,29,30,058,23,31,56,036,13,32,36,147,43*7D

$GPGSV,4,4,14,42,45,139,33,50,45,139,34*78

$GLGSV,3,1,09,67,39,205,36,68,48,287,15,69,12,330,,77,34,036,*62

$GLGSV,3,2,09,78,43,319,,79,18,282,,86,04,024,,87,29,074,10*6B

$GLGSV,3,3,09,88,24,129,29*5B

$GNGLL,3111.36809,N,12055.85789,E,064548.20,A,D*75

$GNRMC,064548.30,A,3111.36809,N,12055.85789,E,0.077,,060317,,,D*6E

$GNVTG,,T,,M,0.077,N,0.142,K,D*3F

$GNGGA,064548.30,3111.36809,N,12055.85789,E,2,12,1.48,-6.1,M,8.6,M,,0000*5D

$GNGSA,A,3,14,27,42,16,25,29,31,32,50,26,,,2.36,1.48,1.83*13

$GNGSA,A,3,87,88,67,,,,,,,,,,2.36,1.48,1.83*12

$GPGSV,4,1,14,03,22,286,25,04,76,337,25,14,63,144,37,16,48,242,36*7B

$GPGSV,4,2,14,22,24,264,,23,12,318,,25,08,047,13,26,74,288,14*7A

$GPGSV,4,3,14,27,11,189,33,29,30,058,23,31,56,036,13,32,36,147,43*7D

$GPGSV,4,4,14,42,45,139,33,50,45,139,34*78

$GLGSV,3,1,09,67,39,205,36,68,48,287,15,69,12,330,,77,34,036,*62

$GLGSV,3,2,09,78,43,319,,79,18,282,,86,04,024,,87,29,074,09*63

$GLGSV,3,3,09,88,24,129,30*53

$GNGLL,3111.36809,N,12055.85789,E,064548.30,A,D*74

$GNRMC,064548.40,A,3111.36809,N,12055.85789,E,0.046,,060317,,,D*6B

$GNVTG,,T,,M,0.046,N,0.086,K,D*34

$GNGGA,064548.40,3111.36809,N,12055.85789,E,2,12,1.48,-6.1,M,8.6,M,,0000*5A

$GNGSA,A,3,14,27,42,16,25,29,31,32,50,26,,,2.36,1.48,1.83*13

$GNGSA,A,3,87,88,67,,,,,,,,,,2.36,1.48,1.83*12

$GPGSV,4,1,14,03,22,286,25,04,76,337,25,14,63,144,37,16,48,242,36*7B

$GPGSV,4,2,14,22,24,264,,23,12,318,,25,08,047,13,26,74,288,14*7A

$GPGSV,4,3,14,27,11,189,32,29,30,058,23,31,56,036,13,32,36,147,43*7C

$GPGSV,4,4,14,42,45,139,33,50,45,139,34*78

$GLGSV,3,1,09,67,39,205,36,68,48,287,15,69,12,330,,77,34,036,*62

$GLGSV,3,2,09,78,43,319,,79,18,282,,86,04,024,,87,29,074,09*63

$GLGSV,3,3,09,88,24,129,30*53

$GNGLL,3111.36809,N,12055.85789,E,064548.40,A,D*73

$GNRMC,064548.50,A,3111.36809,N,12055.85789,E,0.053,,060317,,,D*6E

$GNVTG,,T,,M,0.053,N,0.099,K,D*3E

$GNGGA,064548.50,3111.36809,N,12055.85789,E,2,12,1.48,-6.1,M,8.6,M,,0000*5B

$GNGSA,A,3,14,27,42,16,25,29,31,32,50,26,,,2.36,1.48,1.83*13

$GNGSA,A,3,87,88,67,,,,,,,,,,2.36,1.48,1.83*12

$GPGSV,4,1,14,03,22,286,25,04,76,337,25,14,63,144,37,16,48,242,36*7B

$GPGSV,4,2,14,22,24,264,,23,12,318,,25,08,047,13,26,74,288,14*7A

$GPGSV,4,3,14,27,11,189,32,29,30,058,23,31,56,036,13,32,36,147,43*7C

$GPGSV,4,4,14,42,45,139,33,50,45,139,34*78

$GLGSV,3,1,09,67,39,205,36,68,48,287,15,69,12,330,,77,34,036,*62

$GLGSV,3,2,09,78,43,319,,79,18,282,,86,04,024,,87,29,074,09*63

$GLGSV,3,3,09,88,24,129,30*53

$GNGLL,3111.36809,N,12055.85789,E,064548.50,A,D*72

$GNRMC,064548.60,A,3111.36809,N,12055.85790,E,0.070,,060317,,,D*64

$GNVTG,,T,,M,0.070,N,0.129,K,D*35

$GNGGA,064548.60,3111.36809,N,12055.85790,E,2,12,1.48,-6.2,M,8.6,M,,0000*53

$GNGSA,A,3,14,27,42,16,25,29,31,32,50,26,,,2.36,1.48,1.83*13

$GNGSA,A,3,87,88,67,,,,,,,,,,2.36,1.48,1.83*12

$GPGSV,4,1,14,03,22,286,25,04,76,337,25,14,63,144,37,16,48,242,36*7B

$GPGSV,4,2,14,22,24,264,,23,12,318,,25,08,047,13,26,74,288,13*7D

$GPGSV,4,3,14,27,11,189,33,29,30,058,23,31,56,036,13,32,36,147,43*7D

$GPGSV,4,4,14,42,45,139,33,50,45,139,34*78

$GLGSV,3,1,09,67,39,205,36,68,48,287,15,69,12,330,,77,34,036,*62

$GLGSV,3,2,09,78,43,319,,79,18,282,,86,04,024,,87,29,074,09*63

$GLGSV,3,3,09,88,24,129,30*53

$GNGLL,3111.36809,N,12055.85790,E,064548.60,A,D*79

$GNRMC,064548.70,A,3111.36809,N,12055.85790,E,0.092,,060317,,,D*69

$GNVTG,,T,,M,0.092,N,0.170,K,D*35

$GNGGA,064548.70,3111.36809,N,12055.85790,E,2,12,3.52,-6.2,M,8.6,M,,0000*5B

$GNGSA,A,3,14,27,42,16,25,29,31,32,50,26,,,4.78,3.52,3.24*19

$GNGSA,A,3,87,88,67,,,,,,,,,,4.78,3.52,3.24*18

$GPGSV,4,1,14,03,22,286,25,04,76,337,25,14,63,144,37,16,48,242,36*7B

$GPGSV,4,2,14,22,24,264,,23,12,318,,25,08,047,12,26,74,288,13*7C

$GPGSV,4,3,14,27,11,189,32,29,30,058,23,31,56,036,13,32,36,147,43*7C

$GPGSV,4,4,14,42,45,139,33,50,45,139,34*78

$GLGSV,3,1,09,67,39,205,36,68,48,287,15,69,12,330,,77,34,036,*62

$GLGSV,3,2,09,78,43,319,,79,18,282,,86,04,024,,87,29,074,11*6A

$GLGSV,3,3,09,88,24,129,30*53

$GNGLL,3111.36809,N,12055.85790,E,064548.70,A,D*78

$GNRMC,064548.80,A,3111.36809,N,12055.85790,E,0.131,,060317,,,D*6E

$GNVTG,,T,,M,0.131,N,0.243,K,D*3E

$GNGGA,064548.80,3111.36809,N,12055.85790,E,2,12,1.48,-6.1,M,8.6,M,,0000*5E

$GNGSA,A,3,14,27,42,16,25,29,31,32,50,26,,,2.36,1.48,1.83*13

$GNGSA,A,3,87,88,67,,,,,,,,,,2.36,1.48,1.83*12

$GPGSV,4,1,14,03,22,286,24,04,76,337,25,14,63,144,37,16,48,242,36*7A

$GPGSV,4,2,14,22,24,264,,23,12,318,,25,08,047,12,26,74,288,13*7C

$GPGSV,4,3,14,27,11,189,32,29,30,058,23,31,56,036,13,32,36,147,43*7C

$GPGSV,4,4,14,42,45,139,33,50,45,139,34*78

$GLGSV,3,1,09,67,39,205,36,68,48,287,15,69,12,330,,77,34,036,*62

$GLGSV,3,2,09,78,43,319,,79,18,282,,86,04,024,,87,29,074,11*6A

$GLGSV,3,3,09,88,24,129,30*53

$GNGLL,3111.36809,N,12055.85790,E,064548.80,A,D*77

$GNRMC,064548.90,A,3111.36810,N,12055.85790,E,0.104,,060317,,,D*61

$GNVTG,,T,,M,0.104,N,0.193,K,D*36

$GNGGA,064548.90,3111.36810,N,12055.85790,E,2,12,1.48,-6.2,M,8.6,M,,0000*54

$GNGSA,A,3,14,27,42,16,25,29,31,32,50,26,,,2.36,1.48,1.83*13

$GNGSA,A,3,87,88,67,,,,,,,,,,2.36,1.48,1.83*12

$GPGSV,4,1,14,03,22,286,25,04,76,337,25,14,63,144,37,16,48,242,36*7B

$GPGSV,4,2,14,22,24,264,,23,12,318,,25,08,047,11,26,74,288,12*7E

$GPGSV,4,3,14,27,11,189,32,29,30,058,23,31,56,036,13,32,36,147,43*7C

$GPGSV,4,4,14,42,45,139,33,50,45,139,34*78

$GLGSV,3,1,09,67,39,205,36,68,48,287,16,69,12,330,,77,34,036,*61

$GLGSV,3,2,09,78,43,319,,79,18,282,,86,04,024,,87,29,074,11*6A

$GLGSV,3,3,09,88,24,129,30*53

$GNGLL,3111.36810,N,12055.85790,E,064548.90,A,D*7E

$GNRMC,064549.00,A,3111.36810,N,12055.85791,E,0.147,,060317,,,D*6F

$GNVTG,,T,,M,0.147,N,0.271,K,D*3E

$GNGGA,064549.00,3111.36810,N,12055.85791,E,2,12,1.48,-6.1,M,8.6,M,,0000*5E

$GNGSA,A,3,14,27,42,16,25,29,31,32,50,26,,,2.36,1.48,1.83*13

$GNGSA,A,3,87,88,67,,,,,,,,,,2.36,1.48,1.83*12

$GPGSV,4,1,14,03,22,286,25,04,76,337,25,14,63,144,37,16,48,242,36*7B

$GPGSV,4,2,14,22,24,264,,23,12,318,,25,08,047,11,26,74,288,12*7E

$GPGSV,4,3,14,27,11,189,32,29,30,058,23,31,56,036,13,32,36,147,43*7C

$GPGSV,4,4,14,42,45,139,33,50,45,139,34*78

$GLGSV,3,1,09,67,39,205,36,68,48,287,16,69,12,330,,77,34,036,*61

$GLGSV,3,2,09,78,43,319,,79,18,282,,86,04,024,,87,29,074,11*6A

$GLGSV,3,3,09,88,24,129,30*53

$GNGLL,3111.36810,N,12055.85791,E,064549.00,A,D*77

$GNRMC,064549.10,A,3111.36809,N,12055.85791,E,0.138,,060317,,,D*6E

$GNVTG,,T,,M,0.138,N,0.256,K,D*33

$GNGGA,064549.10,3111.36809,N,12055.85791,E,2,12,1.48,-6.2,M,8.6,M,,0000*54

$GNGSA,A,3,14,27,42,16,25,29,31,32,50,26,,,2.36,1.48,1.83*13

$GNGSA,A,3,87,88,67,,,,,,,,,,2.36,1.48,1.83*12

$GPGSV,4,1,14,03,22,286,25,04,76,337,25,14,63,144,37,16,48,242,36*7B

$GPGSV,4,2,14,22,24,264,,23,12,318,,25,08,047,10,26,74,288,12*7F

$GPGSV,4,3,14,27,11,189,32,29,30,058,23,31,56,036,12,32,36,147,43*7D

$GPGSV,4,4,14,42,45,139,33,50,45,139,34*78

$GLGSV,3,1,09,67,39,205,36,68,48,287,16,69,12,330,,77,34,036,*61

$GLGSV,3,2,09,78,43,319,,79,18,282,,86,04,024,,87,29,074,11*6A

$GLGSV,3,3,09,88,24,129,31*52

$GNGLL,3111.36809,N,12055.85791,E,064549.10,A,D*7E

$GNRMC,064549.20,A,3111.36810,N,12055.85791,E,0.157,,060317,,,D*6C

$GNVTG,,T,,M,0.157,N,0.291,K,D*31

$GNGGA,064549.20,3111.36810,N,12055.85791,E,2,11,1.48,-6.2,M,8.6,M,,0000*5C

$GNGSA,A,3,14,27,42,16,29,31,32,50,,,,,2.36,1.48,1.83*10

$GNGSA,A,3,87,88,67,,,,,,,,,,2.36,1.48,1.83*12

$GPGSV,4,1,14,03,22,286,24,04,76,337,25,14,63,144,37,16,48,242,36*7A

$GPGSV,4,2,14,22,24,264,,23,12,318,,25,08,047,10,26,74,288,11*7C

$GPGSV,4,3,14,27,11,189,32,29,30,058,23,31,56,036,12,32,36,147,43*7D

$GPGSV,4,4,14,42,45,139,33,50,45,139,34*78

$GLGSV,3,1,09,67,39,205,36,68,48,287,16,69,12,330,,77,34,036,*61

$GLGSV,3,2,09,78,43,319,,79,18,282,,86,04,024,,87,29,074,13*68

$GLGSV,3,3,09,88,24,129,30*53

$GNGLL,3111.36810,N,12055.85791,E,064549.20,A,D*75

$GNRMC,064549.30,A,3111.36809,N,12055.85792,E,0.152,,060317,,,D*63

$GNVTG,,T,,M,0.152,N,0.282,K,D*36

$GNGGA,064549.30,3111.36809,N,12055.85792,E,2,11,1.48,-6.1,M,8.6,M,,0000*55

$GNGSA,A,3,14,27,42,16,29,31,32,50,,,,,2.36,1.48,1.83*10

$GNGSA,A,3,87,88,67,,,,,,,,,,2.36,1.48,1.83*12

$GPGSV,4,1,14,03,22,286,25,04,76,337,25,14,63,144,37,16,48,242,36*7B

$GPGSV,4,2,14,22,24,264,,23,12,318,,25,08,047,10,26,74,288,10*7D

$GPGSV,4,3,14,27,11,189,32,29,30,058,23,31,56,036,12,32,36,147,43*7D

$GPGSV,4,4,14,42,45,139,33,50,45,139,34*78

$GLGSV,3,1,09,67,39,205,36,68,48,287,16,69,12,330,,77,34,036,*61

$GLGSV,3,2,09,78,43,319,,79,18,282,,86,04,024,,87,29,074,13*68

$GLGSV,3,3,09,88,24,129,31*52

$GNGLL,3111.36809,N,12055.85792,E,064549.30,A,D*7F

$GNRMC,064549.40,A,3111.36811,N,12055.85792,E,0.138,,060317,,,D*61

$GNVTG,,T,,M,0.138,N,0.256,K,D*33

$GNGGA,064549.40,3111.36811,N,12055.85792,E,2,11,1.48,-6.2,M,8.6,M,,0000*58

$GNGSA,A,3,14,27,42,16,29,31,32,50,,,,,2.36,1.48,1.83*10

$GNGSA,A,3,87,88,67,,,,,,,,,,2.36,1.48,1.83*12

$GPGSV,4,1,14,03,22,286,24,04,76,337,25,14,63,144,37,16,48,242,36*7A

$GPGSV,4,2,14,22,24,264,,23,12,318,,25,08,047,10,26,74,288,10*7D

$GPGSV,4,3,14,27,11,189,32,29,30,058,23,31,56,036,12,32,36,147,43*7D

$GPGSV,4,4,14,42,45,139,33,50,45,139,34*78

$GLGSV,3,1,09,67,39,205,36,68,48,287,17,69,12,330,,77,34,036,*60

$GLGSV,3,2,09,78,43,319,,79,18,282,,86,04,024,,87,29,074,13*68

$GLGSV,3,3,09,88,24,129,31*52

$GNGLL,3111.36811,N,12055.85792,E,064549.40,A,D*71

$GNRMC,064549.50,A,3111.36811,N,12055.85792,E,0.193,,060317,,,D*61

$GNVTG,,T,,M,0.193,N,0.358,K,D*3D

$GNGGA,064549.50,3111.36811,N,12055.85792,E,2,11,1.48,-6.2,M,8.6,M,,0000*59

$GNGSA,A,3,14,27,42,16,29,31,32,50,,,,,2.36,1.48,1.83*10

$GNGSA,A,3,87,88,67,,,,,,,,,,2.36,1.48,1.83*12

$GPGSV,4,1,14,03,22,286,24,04,76,337,25,14,63,144,37,16,48,242,36*7A

$GPGSV,4,2,14,22,24,264,,23,12,318,,25,08,047,09,26,74,288,09*7D

$GPGSV,4,3,14,27,11,189,32,29,30,058,23,31,56,036,11,32,36,147,43*7E

$GPGSV,4,4,14,42,45,139,33,50,45,139,34*78

$GLGSV,3,1,09,67,39,205,36,68,48,287,17,69,12,330,,77,34,036,*60

$GLGSV,3,2,09,78,43,319,,79,18,282,,86,04,024,,87,29,074,13*68

$GLGSV,3,3,09,88,24,129,31*52

$GNGLL,3111.36811,N,12055.85792,E,064549.50,A,D*70

$GNRMC,064549.60,A,3111.36809,N,12055.85792,E,0.146,,060317,,,D*63

$GNVTG,,T,,M,0.146,N,0.270,K,D*3E

$GNGGA,064549.60,3111.36809,N,12055.85792,E,2,11,1.48,-6.2,M,8.6,M,,0000*53

$GNGSA,A,3,14,27,42,16,29,31,32,50,,,,,2.36,1.48,1.83*10

$GNGSA,A,3,87,88,67,,,,,,,,,,2.36,1.48,1.83*12

$GPGSV,4,1,14,03,22,286,25,04,76,337,25,14,63,144,37,16,48,242,36*7B

$GPGSV,4,2,14,22,24,264,,23,12,318,,25,08,047,09,26,74,288,09*7D

$GPGSV,4,3,14,27,11,189,32,29,30,058,23,31,56,036,11,32,36,147,43*7E

$GPGSV,4,4,14,42,45,139,33,50,45,139,34*78

$GLGSV,3,1,09,67,39,205,36,68,48,287,17,69,12,330,,77,34,036,*60

$GLGSV,3,2,09,78,43,319,,79,18,282,,86,04,024,,87,29,074,11*6A

$GLGSV,3,3,09,88,24,129,31*52

$GNGLL,3111.36809,N,12055.85792,E,064549.60,A,D*7A

$GNRMC,064549.70,A,3111.36809,N,12055.85793,E,0.149,,060317,,,D*6C

$GNVTG,,T,,M,0.149,N,0.276,K,D*37

$GNGGA,064549.70,3111.36809,N,12055.85793,E,2,11,1.48,-6.2,M,8.6,M,,0000*53

$GNGSA,A,3,14,27,42,16,29,31,32,50,,,,,2.36,1.48,1.83*10

$GNGSA,A,3,87,88,67,,,,,,,,,,2.36,1.48,1.83*12

$GPGSV,4,1,14,03,22,286,24,04,76,337,25,14,63,144,37,16,48,242,36*7A

$GPGSV,4,2,14,22,24,264,,23,12,318,,25,08,047,09,26,74,288,09*7D

$GPGSV,4,3,14,27,11,189,32,29,30,058,22,31,56,036,10,32,36,147,43*7E

$GPGSV,4,4,14,42,45,139,33,50,45,139,34*78

$GLGSV,3,1,09,67,39,205,36,68,48,287,17,69,12,330,,77,34,036,*60

$GLGSV,3,2,09,78,43,319,,79,18,282,,86,04,024,,87,29,074,11*6A

$GLGSV,3,3,09,88,24,129,31*52

$GNGLL,3111.36809,N,12055.85793,E,064549.70,A,D*7A

$GNRMC,064549.80,A,3111.36810,N,12055.85792,E,0.179,,060317,,,D*69

$GNVTG,,T,,M,0.179,N,0.332,K,D*35

$GNGGA,064549.80,3111.36810,N,12055.85792,E,2,10,1.48,-6.2,M,8.6,M,,0000*54

$GNGSA,A,3,14,27,42,16,29,32,50,,,,,,2.36,1.48,1.83*12

$GNGSA,A,3,87,88,67,,,,,,,,,,2.36,1.48,1.83*12

$GPGSV,4,1,14,03,22,286,24,04,76,337,25,14,63,144,37,16,48,242,36*7A

$GPGSV,4,2,14,22,24,264,,23,12,318,,25,08,047,09,26,74,288,09*7D

$GPGSV,4,3,14,27,11,189,32,29,30,058,22,31,56,036,10,32,36,147,43*7E

$GPGSV,4,4,14,42,45,139,33,50,45,139,34*78

$GLGSV,3,1,09,67,39,205,36,68,48,287,17,69,12,330,,77,34,036,*60

$GLGSV,3,2,09,78,43,319,,79,18,282,,86,04,024,,87,29,074,11*6A

$GLGSV,3,3,09,88,24,129,31*52

$GNGLL,3111.36810,N,12055.85792,E,064549.80,A,D*7C

$GNRMC,064549.90,A,3111.36810,N,12055.85793,E,0.186,,060317,,,D*69

$GNVTG,,T,,M,0.186,N,0.345,K,D*35

$GNGGA,064549.90,3111.36810,N,12055.85793,E,2,11,1.48,-6.2,M,8.6,M,,0000*55

$GNGSA,A,3,14,27,42,16,25,29,32,50,,,,,2.36,1.48,1.83*15

$GNGSA,A,3,87,88,67,,,,,,,,,,2.36,1.48,1.83*12

$GPGSV,4,1,14,03,22,286,24,04,76,337,25,14,63,144,37,16,48,242,36*7A

$GPGSV,4,2,14,22,24,264,,23,12,318,,25,08,047,09,26,74,288,09*7D

$GPGSV,4,3,14,27,11,189,32,29,30,058,22,31,56,036,10,32,36,147,43*7E

$GPGSV,4,4,14,42,45,139,33,50,45,139,34*78

$GLGSV,3,1,09,67,39,205,36,68,48,287,17,69,12,330,,77,34,036,*60

$GLGSV,3,2,09,78,43,319,,79,18,282,,86,04,024,,87,29,074,11*6A

$GLGSV,3,3,09,88,24,129,31*52

$GNGLL,3111.36810,N,12055.85793,E,064549.90,A,D*7C

$GNRMC,064550.00,A,3111.36807,N,12055.85793,E,0.147,,060317,,,D*63

$GNVTG,,T,,M,0.147,N,0.272,K,D*3D

$GNGGA,064550.00,3111.36807,N,12055.85793,E,2,11,1.48,-6.1,M,8.6,M,,0000*51

$GNGSA,A,3,14,27,42,16,25,29,32,50,,,,,2.36,1.48,1.83*15

$GNGSA,A,3,87,88,67,,,,,,,,,,2.36,1.48,1.83*12

$GPGSV,4,1,14,03,22,286,24,04,76,337,25,14,63,144,37,16,48,242,36*7A

$GPGSV,4,2,14,22,24,264,,23,12,318,,25,08,047,09,26,74,288,08*7C

$GPGSV,4,3,14,27,11,189,33,29,30,058,22,31,56,036,09,32,36,147,43*77

$GPGSV,4,4,14,42,45,139,33,50,45,139,34*78

$GLGSV,3,1,09,67,39,205,36,68,48,287,17,69,12,330,,77,34,036,*60

$GLGSV,3,2,09,78,43,319,,79,18,282,,86,04,024,,87,29,074,13*68

$GLGSV,3,3,09,88,24,129,31*52

$GNGLL,3111.36807,N,12055.85793,E,064550.00,A,D*7B

$GNRMC,064550.10,A,3111.36809,N,12055.85793,E,0.199,,060317,,,D*6F

$GNVTG,,T,,M,0.199,N,0.369,K,D*35

$GNGGA,064550.10,3111.36809,N,12055.85793,E,2,11,1.48,-6.2,M,8.6,M,,0000*5D

$GNGSA,A,3,14,27,42,16,25,29,32,50,,,,,2.36,1.48,1.83*15

$GNGSA,A,3,87,88,67,,,,,,,,,,2.36,1.48,1.83*12

$GPGSV,4,1,14,03,22,286,24,04,76,337,25,14,63,144,37,16,48,242,36*7A

$GPGSV,4,2,14,22,24,264,,23,12,318,,25,08,047,09,26,74,288,08*7C

$GPGSV,4,3,14,27,11,189,33,29,30,058,22,31,56,036,09,32,36,147,43*77

$GPGSV,4,4,14,42,45,139,33,50,45,139,34*78

$GLGSV,3,1,09,67,39,205,36,68,48,287,17,69,12,330,,77,34,036,*60

$GLGSV,3,2,09,78,43,319,,79,18,282,,86,04,024,,87,29,074,13*68

$GLGSV,3,3,09,88,24,129,31*52

$GNGLL,3111.36809,N,12055.85793,E,064550.10,A,D*74

$GNRMC,064550.20,A,3111.36809,N,12055.85794,E,0.203,,060317,,,D*6B

$GNVTG,,T,,M,0.203,N,0.376,K,D*3B

$GNGGA,064550.20,3111.36809,N,12055.85794,E,2,11,1.48,-6.2,M,8.6,M,,0000*59

$GNGSA,A,3,14,27,42,16,25,29,32,50,,,,,2.36,1.48,1.83*15

$GNGSA,A,3,87,88,67,,,,,,,,,,2.36,1.48,1.83*12

$GPGSV,4,1,14,03,22,286,24,04,76,337,25,14,63,144,37,16,48,242,36*7A

$GPGSV,4,2,14,22,24,264,,23,12,318,,25,08,047,09,26,74,288,08*7C

$GPGSV,4,3,14,27,11,189,32,29,30,058,22,31,56,036,09,32,36,147,43*76

$GPGSV,4,4,14,42,45,139,33,50,45,139,34*78

$GLGSV,3,1,09,67,39,205,36,68,48,287,17,69,12,330,,77,34,036,*60

$GLGSV,3,2,09,78,43,319,,79,18,282,,86,04,024,,87,29,074,13*68

$GLGSV,3,3,09,88,24,129,31*52

$GNGLL,3111.36809,N,12055.85794,E,064550.20,A,D*70

$GNRMC,064550.30,A,3111.36806,N,12055.85794,E,0.162,,060317,,,D*61

$GNVTG,,T,,M,0.162,N,0.300,K,D*3E

$GNGGA,064550.30,3111.36806,N,12055.85794,E,2,11,1.48,-6.1,M,8.6,M,,0000*54

$GNGSA,A,3,14,27,42,16,25,29,32,50,,,,,2.36,1.48,1.83*15

$GNGSA,A,3,87,88,67,,,,,,,,,,2.36,1.48,1.83*12

$GPGSV,4,1,14,03,22,286,24,04,76,337,25,14,63,144,37,16,48,242,36*7A

$GPGSV,4,2,14,22,24,264,,23,12,318,,25,08,047,09,26,74,288,08*7C

$GPGSV,4,3,14,27,11,189,32,29,30,058,22,31,56,036,09,32,36,147,43*76

$GPGSV,4,4,14,42,45,139,33,50,45,139,34*78

$GLGSV,3,1,09,67,39,205,36,68,48,287,17,69,12,330,,77,34,036,*60

$GLGSV,3,2,09,78,43,319,,79,18,282,,86,04,024,,87,29,074,13*68

$GLGSV,3,3,09,88,24,129,31*52

$GNGLL,3111.36806,N,12055.85794,E,064550.30,A,D*7E

$GNRMC,064550.40,A,3111.36808,N,12055.85794,E,0.166,,060317,,,D*6C

$GNVTG,,T,,M,0.166,N,0.308,K,D*32

$GNGGA,064550.40,3111.36808,N,12055.85794,E,2,11,1.48,-6.2,M,8.6,M,,0000*5E

$GNGSA,A,3,14,27,42,16,25,29,32,50,,,,,2.36,1.48,1.83*15

$GNGSA,A,3,87,88,67,,,,,,,,,,2.36,1.48,1.83*12

$GPGSV,4,1,14,03,22,286,24,04,76,337,25,14,63,144,37,16,48,242,36*7A

$GPGSV,4,2,14,22,24,264,,23,12,318,,25,08,047,09,26,74,288,08*7C

$GPGSV,4,3,14,27,11,189,32,29,30,058,22,31,56,036,09,32,36,147,43*76

$GPGSV,4,4,14,42,45,139,33,50,45,139,34*78

$GLGSV,3,1,09,67,39,205,36,68,48,287,17,69,12,330,,77,34,036,*60

$GLGSV,3,2,09,78,43,319,,79,18,282,,86,04,024,,87,29,074,11*6A

$GLGSV,3,3,09,88,24,129,31*52

$GNGLL,3111.36808,N,12055.85794,E,064550.40,A,D*77

$GNRMC,064550.50,A,3111.36805,N,12055.85794,E,0.156,,060317,,,D*63

$GNVTG,,T,,M,0.156,N,0.289,K,D*39

$GNGGA,064550.50,3111.36805,N,12055.85794,E,2,11,1.48,-6.1,M,8.6,M,,0000*51

$GNGSA,A,3,14,27,42,16,25,29,32,50,,,,,2.36,1.48,1.83*15

$GNGSA,A,3,87,88,67,,,,,,,,,,2.36,1.48,1.83*12

$GPGSV,4,1,14,03,22,286,24,04,76,337,25,14,63,144,37,16,48,242,36*7A

$GPGSV,4,2,14,22,24,264,,23,12,318,,25,08,047,09,26,74,288,08*7C

$GPGSV,4,3,14,27,11,189,32,29,30,058,22,31,56,036,09,32,36,147,43*76

$GPGSV,4,4,14,42,45,139,33,50,45,139,34*78

$GLGSV,3,1,09,67,39,205,36,68,48,287,17,69,12,330,,77,34,036,*60

$GLGSV,3,2,09,78,43,319,,79,18,282,,86,04,024,,87,29,074,11*6A

$GLGSV,3,3,09,88,24,129,31*52

$GNGLL,3111.36805,N,12055.85794,E,064550.50,A,D*7B

$GNRMC,064550.60,A,3111.36807,N,12055.85794,E,0.162,,060317,,,D*65

$GNVTG,,T,,M,0.162,N,0.300,K,D*3E

$GNGGA,064550.60,3111.36807,N,12055.85794,E,2,11,1.48,-6.2,M,8.6,M,,0000*53

$GNGSA,A,3,14,27,42,16,25,29,32,50,,,,,2.36,1.48,1.83*15

$GNGSA,A,3,87,88,67,,,,,,,,,,2.36,1.48,1.83*12

$GPGSV,4,1,14,03,22,286,24,04,76,337,25,14,63,144,37,16,48,242,36*7A

$GPGSV,4,2,14,22,24,264,,23,12,318,,25,08,047,09,26,74,288,08*7C

$GPGSV,4,3,14,27,11,189,32,29,30,058,22,31,56,036,08,32,36,147,43*77

$GPGSV,4,4,14,42,45,139,33,50,45,139,34*78

$GLGSV,3,1,09,67,39,205,36,68,48,287,18,69,12,330,,77,34,036,*6F

$GLGSV,3,2,09,78,43,319,,79,18,282,,86,04,024,,87,29,074,11*6A

$GLGSV,3,3,09,88,24,129,31*52

$GNGLL,3111.36807,N,12055.85794,E,064550.60,A,D*7A

$GNRMC,064550.70,A,3111.36806,N,12055.85795,E,0.188,,060317,,,D*60

$GNVTG,,T,,M,0.188,N,0.348,K,D*36

$GNGGA,064550.70,3111.36806,N,12055.85795,E,2,11,1.48,-6.1,M,8.6,M,,0000*51

$GNGSA,A,3,14,27,42,16,25,29,32,50,,,,,2.36,1.48,1.83*15

$GNGSA,A,3,87,88,67,,,,,,,,,,2.36,1.48,1.83*12

$GPGSV,4,1,14,03,22,286,24,04,76,337,25,14,63,144,37,16,48,242,36*7A

$GPGSV,4,2,14,22,24,264,,23,12,318,,25,08,047,08,26,74,288,09*7C

$GPGSV,4,3,14,27,11,189,32,29,30,058,22,31,56,036,08,32,36,147,43*77

$GPGSV,4,4,14,42,45,139,33,50,45,139,34*78

$GLGSV,3,1,09,67,39,205,36,68,48,287,18,69,12,330,,77,34,036,*6F

$GLGSV,3,2,09,78,43,319,,79,18,282,,86,04,024,,87,29,074,11*6A

$GLGSV,3,3,09,88,24,129,31*52

$GNGLL,3111.36806,N,12055.85795,E,064550.70,A,D*7B

$GNRMC,064550.80,A,3111.36804,N,12055.85795,E,0.167,,060317,,,D*6C

$GNVTG,,T,,M,0.167,N,0.309,K,D*32

$GNGGA,064550.80,3111.36804,N,12055.85795,E,2,11,1.48,-6.1,M,8.6,M,,0000*5C

$GNGSA,A,3,14,27,42,16,25,29,32,50,,,,,2.36,1.48,1.83*15

$GNGSA,A,3,87,88,67,,,,,,,,,,2.36,1.48,1.83*12

$GPGSV,4,1,14,03,22,286,24,04,76,337,25,14,63,144,37,16,48,242,36*7A

$GPGSV,4,2,14,22,24,264,,23,12,318,,25,08,047,08,26,74,288,09*7C

$GPGSV,4,3,14,27,11,189,32,29,30,058,22,31,56,036,08,32,36,147,43*77

$GPGSV,4,4,14,42,45,139,33,50,45,139,34*78

$GLGSV,3,1,09,67,39,205,36,68,48,287,17,69,12,330,,77,34,036,*60

$GLGSV,3,2,09,78,43,319,,79,18,282,,86,04,024,,87,29,074,16*6D

$GLGSV,3,3,09,88,24,129,32*51

$GNGLL,3111.36804,N,12055.85795,E,064550.80,A,D*76

$GNRMC,064550.90,A,3111.36806,N,12055.85795,E,0.153,,060317,,,D*68

$GNVTG,,T,,M,0.153,N,0.283,K,D*36

$GNGGA,064550.90,3111.36806,N,12055.85795,E,2,12,1.48,-6.2,M,8.6,M,,0000*5F

$GNGSA,A,3,14,27,42,16,25,29,31,32,50,,,,2.36,1.48,1.83*17

$GNGSA,A,3,87,88,67,,,,,,,,,,2.36,1.48,1.83*12

$GPGSV,4,1,14,03,22,286,24,04,76,337,24,14,63,144,37,16,48,242,36*7B

$GPGSV,4,2,14,22,24,264,,23,12,318,,25,08,047,08,26,74,288,09*7C

$GPGSV,4,3,14,27,11,189,32,29,30,058,22,31,56,036,08,32,36,147,43*77

$GPGSV,4,4,14,42,45,139,33,50,45,139,34*78

$GLGSV,3,1,09,67,39,205,36,68,48,287,17,69,12,330,,77,34,036,*60

$GLGSV,3,2,09,78,43,319,,79,18,282,,86,04,024,,87,29,074,16*6D

$GLGSV,3,3,09,88,24,129,32*51

$GNGLL,3111.36806,N,12055.85795,E,064550.90,A,D*75

$GNRMC,064551.00,A,3111.36802,N,12055.85795,E,0.158,,060317,,,D*6F

$GNVTG,,T,,M,0.158,N,0.294,K,D*3B

$GNGGA,064551.00,3111.36802,N,12055.85795,E,2,12,1.48,-6.1,M,8.6,M,,0000*50

$GNGSA,A,3,14,27,42,16,25,29,31,32,50,,,,2.36,1.48,1.83*17

$GNGSA,A,3,87,88,67,,,,,,,,,,2.36,1.48,1.83*12

$GPGSV,4,1,14,03,22,286,24,04,76,337,24,14,63,144,37,16,48,242,37*7A

$GPGSV,4,2,14,22,24,264,,23,12,318,,25,08,047,08,26,74,288,08*7D

$GPGSV,4,3,14,27,11,189,32,29,30,058,22,31,56,036,08,32,36,147,43*77

$GPGSV,4,4,14,42,45,139,33,50,45,139,34*78

$GLGSV,3,1,09,67,39,205,36,68,48,287,18,69,12,330,,77,34,036,*6F

$GLGSV,3,2,09,78,43,319,,79,18,282,,86,04,024,,87,29,074,16*6D

$GLGSV,3,3,09,88,24,129,32*51

$GNGLL,3111.36802,N,12055.85795,E,064551.00,A,D*79

$GNRMC,064551.10,A,3111.36802,N,12055.85795,E,0.111,,060317,,,D*63

$GNVTG,,T,,M,0.111,N,0.206,K,D*3D

$GNGGA,064551.10,3111.36802,N,12055.85795,E,2,12,1.48,-6.1,M,8.6,M,,0000*51

$GNGSA,A,3,14,27,42,16,25,29,31,32,50,,,,2.36,1.48,1.83*17

$GNGSA,A,3,87,88,67,,,,,,,,,,2.36,1.48,1.83*12

$GPGSV,4,1,14,03,22,286,24,04,76,337,24,14,63,144,37,16,48,242,37*7A

$GPGSV,4,2,14,22,24,264,,23,12,318,,25,08,047,08,26,74,288,08*7D

$GPGSV,4,3,14,27,11,189,32,29,30,058,22,31,56,036,08,32,36,147,43*77

$GPGSV,4,4,14,42,45,139,33,50,45,139,34*78

$GLGSV,3,1,09,67,39,205,36,68,48,287,18,69,12,330,,77,34,036,*6F

$GLGSV,3,2,09,78,43,319,,79,18,282,,86,04,024,,87,29,074,16*6D

$GLGSV,3,3,09,88,24,129,32*51

$GNGLL,3111.36802,N,12055.85795,E,064551.10,A,D*78

$GNRMC,064551.20,A,3111.36802,N,12055.85796,E,0.120,,060317,,,D*61

$GNVTG,,T,,M,0.120,N,0.223,K,D*38

$GNGGA,064551.20,3111.36802,N,12055.85796,E,2,12,1.48,-6.1,M,8.6,M,,0000*51

$GNGSA,A,3,14,27,42,16,25,29,31,32,50,,,,2.36,1.48,1.83*17

$GNGSA,A,3,87,88,67,,,,,,,,,,2.36,1.48,1.83*12

$GPGSV,4,1,14,03,22,286,24,04,76,337,24,14,63,144,38,16,48,242,37*75

$GPGSV,4,2,14,22,24,264,,23,12,318,,25,08,047,08,26,74,288,08*7D

$GPGSV,4,3,14,27,11,189,32,29,30,058,22,31,56,036,08,32,36,147,43*77

$GPGSV,4,4,14,42,45,139,33,50,45,139,34*78

$GLGSV,3,1,09,67,39,205,36,68,48,287,18,69,12,330,,77,34,036,*6F

$GLGSV,3,2,09,78,43,319,,79,18,282,,86,04,024,,87,29,074,13*68

$GLGSV,3,3,09,88,24,129,31*52

$GNGLL,3111.36802,N,12055.85796,E,064551.20,A,D*78

$GNRMC,064551.30,A,3111.36800,N,12055.85796,E,0.105,,060317,,,D*65

$GNVTG,,T,,M,0.105,N,0.194,K,D*30

$GNGGA,064551.30,3111.36800,N,12055.85796,E,2,12,1.48,-6.0,M,8.6,M,,0000*53

$GNGSA,A,3,14,27,42,16,25,29,31,32,50,,,,2.36,1.48,1.83*17

$GNGSA,A,3,87,88,67,,,,,,,,,,2.36,1.48,1.83*12

$GPGSV,4,1,14,03,22,286,24,04,76,337,24,14,63,144,38,16,48,242,37*75

$GPGSV,4,2,14,22,24,264,,23,12,318,,25,08,047,08,26,74,288,08*7D

$GPGSV,4,3,14,27,11,189,32,29,30,058,22,31,56,036,08,32,36,147,43*77

$GPGSV,4,4,14,42,45,139,33,50,45,139,34*78

$GLGSV,3,1,09,67,39,205,36,68,48,287,17,69,12,330,,77,34,036,*60

$GLGSV,3,2,09,78,43,319,,79,18,282,,86,04,024,,87,29,074,13*68

$GLGSV,3,3,09,88,24,129,31*52

$GNGLL,3111.36800,N,12055.85796,E,064551.30,A,D*7B

$GNRMC,064551.40,A,3111.36799,N,12055.85796,E,0.077,,060317,,,D*69

$GNVTG,,T,,M,0.077,N,0.143,K,D*3E

$GNGGA,064551.40,3111.36799,N,12055.85796,E,2,12,1.48,-6.0,M,8.6,M,,0000*5B

$GNGSA,A,3,14,27,42,16,25,29,31,32,50,,,,2.36,1.48,1.83*17

$GNGSA,A,3,87,88,67,,,,,,,,,,2.36,1.48,1.83*12

$GPGSV,4,1,14,03,22,286,24,04,76,337,24,14,63,144,38,16,48,242,37*75

$GPGSV,4,2,14,22,24,264,,23,12,318,,25,08,047,08,26,74,288,08*7D

$GPGSV,4,3,14,27,11,189,32,29,30,058,22,31,56,036,08,32,36,147,43*77

$GPGSV,4,4,14,42,45,139,33,50,45,139,34*78

$GLGSV,3,1,09,67,39,205,36,68,48,287,17,69,12,330,,77,34,036,*60

$GLGSV,3,2,09,78,43,319,,79,18,282,,86,04,024,,87,29,074,13*68

$GLGSV,3,3,09,88,24,129,31*52

$GNGLL,3111.36799,N,12055.85796,E,064551.40,A,D*73

$GNRMC,064551.50,A,3111.36799,N,12055.85797,E,0.093,,060317,,,D*63

$GNVTG,,T,,M,0.093,N,0.172,K,D*36

$GNGGA,064551.50,3111.36799,N,12055.85797,E,2,12,1.48,-6.0,M,8.6,M,,0000*5B

$GNGSA,A,3,14,27,42,16,25,29,31,32,50,,,,2.36,1.48,1.83*17

$GNGSA,A,3,87,88,67,,,,,,,,,,2.36,1.48,1.83*12

$GPGSV,4,1,14,03,22,286,24,04,76,337,24,14,63,144,38,16,48,242,37*75

$GPGSV,4,2,14,22,24,264,,23,12,318,,25,08,047,08,26,74,288,08*7D

$GPGSV,4,3,14,27,11,189,32,29,30,058,22,31,56,036,08,32,36,147,43*77

$GPGSV,4,4,14,42,45,139,33,50,45,139,34*78

$GLGSV,3,1,09,67,39,205,36,68,48,287,17,69,12,330,,77,34,036,*60

$GLGSV,3,2,09,78,43,319,,79,18,282,,86,04,024,,87,29,074,13*68

$GLGSV,3,3,09,88,24,129,31*52

$GNGLL,3111.36799,N,12055.85797,E,064551.50,A,D*73

$GNRMC,064551.60,A,3111.36796,N,12055.85796,E,0.075,,060317,,,D*66

$GNVTG,,T,,M,0.075,N,0.138,K,D*30

$GNGGA,064551.60,3111.36796,N,12055.85796,E,2,12,3.52,-6.0,M,8.6,M,,0000*5F

$GNGSA,A,3,14,27,42,16,25,29,31,32,50,,,,4.78,3.52,3.24*1D

$GNGSA,A,3,87,88,67,,,,,,,,,,4.78,3.52,3.24*18

$GPGSV,4,1,14,03,22,286,24,04,76,337,24,14,63,144,38,16,48,242,37*75

$GPGSV,4,2,14,22,24,264,,23,12,318,,25,08,047,08,26,74,288,08*7D

$GPGSV,4,3,14,27,11,189,32,29,30,058,22,31,56,036,08,32,36,147,43*77

$GPGSV,4,4,14,42,45,139,33,50,45,139,34*78

$GLGSV,3,1,09,67,39,205,36,68,48,287,17,69,12,330,,77,34,036,*60

$GLGSV,3,2,09,78,43,319,,79,18,282,,86,04,024,,87,29,074,14*6F

$GLGSV,3,3,09,88,24,129,31*52

$GNGLL,3111.36796,N,12055.85796,E,064551.60,A,D*7E

$GNRMC,064551.70,A,3111.36796,N,12055.85797,E,0.040,,060317,,,D*60

$GNVTG,,T,,M,0.040,N,0.074,K,D*3F

$GNGGA,064551.70,3111.36796,N,12055.85797,E,2,10,1.48,-6.0,M,8.6,M,,0000*54

$GNGSA,A,3,14,27,42,16,29,32,50,,,,,,2.36,1.48,1.83*12

$GNGSA,A,3,87,88,67,,,,,,,,,,2.36,1.48,1.83*12

$GPGSV,4,1,14,03,22,286,24,04,76,337,25,14,63,144,38,16,48,242,37*74

$GPGSV,4,2,14,22,24,264,,23,12,318,,25,08,047,08,26,74,288,08*7D

$GPGSV,4,3,14,27,11,189,32,29,30,058,22,31,56,036,08,32,36,147,43*77

$GPGSV,4,4,14,42,45,139,33,50,45,139,34*78

$GLGSV,3,1,09,67,39,205,36,68,48,287,17,69,12,330,,77,34,036,*60

$GLGSV,3,2,09,78,43,319,,79,18,282,,86,04,024,,87,29,074,14*6F

$GLGSV,3,3,09,88,24,129,31*52

$GNGLL,3111.36796,N,12055.85797,E,064551.70,A,D*7E

$GNRMC,064551.80,A,3111.36797,N,12055.85797,E,0.058,,060317,,,D*67

$GNVTG,,T,,M,0.058,N,0.107,K,D*33

$GNGGA,064551.80,3111.36797,N,12055.85797,E,2,10,1.48,-6.0,M,8.6,M,,0000*5A

$GNGSA,A,3,14,27,42,16,29,32,50,,,,,,2.36,1.48,1.83*12

$GNGSA,A,3,87,88,67,,,,,,,,,,2.36,1.48,1.83*12

$GPGSV,4,1,14,03,22,286,24,04,76,337,24,14,63,144,38,16,48,242,37*75

$GPGSV,4,2,14,22,24,264,,23,12,318,,25,08,047,08,26,74,288,08*7D

$GPGSV,4,3,14,27,11,189,32,29,30,058,22,31,56,036,08,32,36,147,43*77

$GPGSV,4,4,14,42,45,139,33,50,45,139,34*78

$GLGSV,3,1,09,67,39,205,36,68,48,287,17,69,12,330,,77,34,036,*60

$GLGSV,3,2,09,78,43,319,,79,18,282,,86,04,024,,87,29,074,14*6F

$GLGSV,3,3,09,88,24,129,31*52

$GNGLL,3111.36797,N,12055.85797,E,064551.80,A,D*70

$GNRMC,064551.90,A,3111.36795,N,12055.85798,E,0.045,,060317,,,D*67

$GNVTG,,T,,M,0.045,N,0.084,K,D*35

$GNGGA,064551.90,3111.36795,N,12055.85798,E,2,10,1.48,-6.0,M,8.6,M,,0000*56

$GNGSA,A,3,14,27,42,16,29,32,50,,,,,,2.36,1.48,1.83*12

$GNGSA,A,3,87,88,67,,,,,,,,,,2.36,1.48,1.83*12

$GPGSV,4,1,14,03,22,286,24,04,76,337,24,14,63,144,38,16,48,242,37*75

$GPGSV,4,2,14,22,24,264,,23,12,318,,25,08,047,08,26,74,288,08*7D

$GPGSV,4,3,14,27,11,189,32,29,30,058,22,31,56,036,08,32,36,147,43*77

$GPGSV,4,4,14,42,45,139,34,50,45,139,34*7F

$GLGSV,3,1,09,67,39,205,36,68,48,287,17,69,12,330,,77,34,036,*60

$GLGSV,3,2,09,78,43,319,,79,18,282,,86,04,024,,87,29,074,14*6F

$GLGSV,3,3,09,88,24,129,31*52

$GNGLL,3111.36795,N,12055.85798,E,064551.90,A,D*7C

$GNRMC,064552.00,A,3111.36795,N,12055.85799,E,0.058,,060317,,,D*60

$GNVTG,,T,,M,0.058,N,0.108,K,D*3C

$GNGGA,064552.00,3111.36795,N,12055.85799,E,2,10,1.48,-6.0,M,8.6,M,,0000*5D

$GNGSA,A,3,14,27,42,16,29,32,50,,,,,,2.36,1.48,1.83*12

$GNGSA,A,3,87,88,67,,,,,,,,,,2.36,1.48,1.83*12

$GPGSV,4,1,14,03,22,286,24,04,76,337,24,14,63,144,38,16,48,242,37*75

$GPGSV,4,2,14,22,24,264,,23,12,318,,25,08,047,08,26,74,288,08*7D

$GPGSV,4,3,14,27,11,189,32,29,30,058,22,31,56,036,08,32,36,147,43*77

$GPGSV,4,4,14,42,45,139,34,50,45,139,34*7F

$GLGSV,3,1,09,67,39,205,36,68,48,287,18,69,12,330,,77,34,036,*6F

$GLGSV,3,2,09,78,43,319,,79,18,282,,86,04,024,,87,29,074,14*6F

$GLGSV,3,3,09,88,24,129,31*52

$GNGLL,3111.36795,N,12055.85799,E,064552.00,A,D*77

$GNRMC,064552.10,A,3111.36793,N,12055.85798,E,0.031,,060317,,,D*69

$GNVTG,,T,,M,0.031,N,0.057,K,D*38

$GNGGA,064552.10,3111.36793,N,12055.85798,E,2,11,1.48,-5.9,M,8.6,M,,0000*50

$GNGSA,A,3,14,27,42,16,25,29,32,50,,,,,2.36,1.48,1.83*15

$GNGSA,A,3,87,88,67,,,,,,,,,,2.36,1.48,1.83*12

$GPGSV,4,1,14,03,22,286,24,04,76,337,24,14,63,144,38,16,48,242,37*75

$GPGSV,4,2,14,22,24,264,,23,12,318,,25,08,047,08,26,74,288,08*7D

$GPGSV,4,3,14,27,11,189,32,29,30,058,22,31,56,036,08,32,36,147,43*77

$GPGSV,4,4,14,42,45,139,33,50,45,139,34*78

$GLGSV,3,1,09,67,39,205,36,68,48,287,18,69,12,330,,77,34,036,*6F

$GLGSV,3,2,09,78,43,319,,79,18,282,,86,04,024,,87,29,074,16*6D

$GLGSV,3,3,09,88,24,129,31*52

$GNGLL,3111.36793,N,12055.85798,E,064552.10,A,D*71

$GNRMC,064552.20,A,3111.36792,N,12055.85799,E,0.056,,060317,,,D*6B

$GNVTG,,T,,M,0.056,N,0.103,K,D*39

$GNGGA,064552.20,3111.36792,N,12055.85799,E,2,11,1.48,-5.9,M,8.6,M,,0000*53

$GNGSA,A,3,14,27,42,16,25,29,32,50,,,,,2.36,1.48,1.83*15

$GNGSA,A,3,87,88,67,,,,,,,,,,2.36,1.48,1.83*12

$GPGSV,4,1,14,03,22,286,24,04,76,338,24,14,63,144,38,16,48,242,37*7A

$GPGSV,4,2,14,22,24,264,,23,12,318,,25,08,047,08,26,74,288,08*7D

$GPGSV,4,3,14,27,11,189,32,29,30,058,22,31,56,036,08,32,36,147,43*77

$GPGSV,4,4,14,42,45,139,33,50,45,139,34*78

$GLGSV,3,1,09,67,39,205,36,68,48,287,18,69,12,330,,77,34,036,*6F

$GLGSV,3,2,09,78,43,319,,79,18,282,,86,04,024,,87,29,074,16*6D

$GLGSV,3,3,09,88,24,129,31*52

$GNGLL,3111.36792,N,12055.85799,E,064552.20,A,D*72

$GNRMC,064552.30,A,3111.36790,N,12055.85799,E,0.038,,060317,,,D*60

$GNVTG,,T,,M,0.038,N,0.071,K,D*35

$GNGGA,064552.30,3111.36790,N,12055.85799,E,2,11,1.48,-5.9,M,8.6,M,,0000*50

$GNGSA,A,3,14,27,42,16,25,29,32,50,,,,,2.36,1.48,1.83*15

$GNGSA,A,3,87,88,67,,,,,,,,,,2.36,1.48,1.83*12

$GPGSV,4,1,14,03,22,286,24,04,76,338,24,14,63,144,38,16,48,242,37*7A

$GPGSV,4,2,14,22,24,264,,23,12,318,,25,08,047,08,26,74,288,08*7D

$GPGSV,4,3,14,27,11,189,32,29,30,058,22,31,56,036,08,32,36,147,43*77

$GPGSV,4,4,14,42,45,139,33,50,45,139,34*78

$GLGSV,3,1,09,67,39,205,36,68,48,287,18,69,12,330,,77,34,036,*6F

$GLGSV,3,2,09,78,43,319,,79,18,282,,86,04,024,,87,29,074,16*6D

$GLGSV,3,3,09,88,24,129,31*52

$GNGLL,3111.36790,N,12055.85799,E,064552.30,A,D*71

$GNRMC,064552.40,A,3111.36790,N,12055.85799,E,0.025,,060317,,,D*6B

$GNVTG,,T,,M,0.025,N,0.046,K,D*3D

$GNGGA,064552.40,3111.36790,N,12055.85799,E,2,11,1.48,-5.9,M,8.6,M,,0000*57

$GNGSA,A,3,14,27,42,16,25,29,32,50,,,,,2.36,1.48,1.83*15

$GNGSA,A,3,87,88,67,,,,,,,,,,2.36,1.48,1.83*12

$GPGSV,4,1,14,03,22,286,24,04,76,338,24,14,63,144,38,16,48,242,37*7A

$GPGSV,4,2,14,22,24,264,,23,12,318,,25,08,047,08,26,74,288,08*7D

$GPGSV,4,3,14,27,11,189,32,29,30,058,22,31,56,036,08,32,36,147,43*77

$GPGSV,4,4,14,42,45,139,33,50,45,139,34*78

$GLGSV,3,1,09,67,39,205,36,68,48,287,18,69,12,330,,77,34,036,*6F

$GLGSV,3,2,09,78,43,319,,79,18,282,,86,04,024,,87,29,074,16*6D

$GLGSV,3,3,09,88,24,129,31*52

$GNGLL,3111.36790,N,12055.85799,E,064552.40,A,D*76

$GNRMC,064552.50,A,3111.36788,N,12055.85799,E,0.009,,060317,,,D*6D

$GNVTG,,T,,M,0.009,N,0.017,K,D*37

$GNGGA,064552.50,3111.36788,N,12055.85799,E,2,11,1.48,-5.9,M,8.6,M,,0000*5F

$GNGSA,A,3,14,27,42,16,25,29,32,50,,,,,2.36,1.48,1.83*15

$GNGSA,A,3,87,88,67,,,,,,,,,,2.36,1.48,1.83*12

$GPGSV,4,1,14,03,22,286,24,04,76,338,24,14,63,144,38,16,48,242,37*7A

$GPGSV,4,2,14,22,24,264,,23,12,318,,25,08,047,12,26,74,288,08*76

$GPGSV,4,3,14,27,11,189,32,29,30,058,22,31,56,036,08,32,36,147,43*77

$GPGSV,4,4,14,42,45,139,33,50,45,139,34*78

$GLGSV,3,1,09,67,39,205,36,68,48,287,18,69,12,330,,77,34,036,*6F

$GLGSV,3,2,09,78,43,319,,79,18,282,,86,04,024,,87,29,074,15*6E

$GLGSV,3,3,09,88,24,129,31*52

$GNGLL,3111.36788,N,12055.85799,E,064552.50,A,D*7E

$GNRMC,064552.60,A,3111.36789,N,12055.85800,E,0.033,,060317,,,D*69

$GNVTG,,T,,M,0.033,N,0.061,K,D*3F

$GNGGA,064552.60,3111.36789,N,12055.85800,E,2,11,1.48,-5.9,M,8.6,M,,0000*52

$GNGSA,A,3,14,27,42,16,25,29,32,50,,,,,2.36,1.48,1.83*15

$GNGSA,A,3,87,88,67,,,,,,,,,,2.36,1.48,1.83*12

$GPGSV,4,1,14,03,22,286,24,04,76,338,24,14,63,144,38,16,48,242,37*7A

$GPGSV,4,2,14,22,24,264,,23,12,318,,25,08,047,12,26,74,288,08*76

$GPGSV,4,3,14,27,11,189,32,29,30,058,22,31,56,036,08,32,36,147,43*77

$GPGSV,4,4,14,42,45,139,33,50,45,139,34*78

$GLGSV,3,1,09,67,39,205,36,68,48,287,18,69,12,330,,77,34,036,*6F

$GLGSV,3,2,09,78,43,319,,79,18,282,,86,04,024,,87,29,074,15*6E

$GLGSV,3,3,09,88,24,129,31*52

$GNGLL,3111.36789,N,12055.85800,E,064552.60,A,D*73

$GNRMC,064552.70,A,3111.36785,N,12055.85800,E,0.027,,060317,,,D*61

$GNVTG,,T,,M,0.027,N,0.049,K,D*30

$GNGGA,064552.70,3111.36785,N,12055.85800,E,2,11,1.48,-5.8,M,8.6,M,,0000*5E

$GNGSA,A,3,14,27,42,16,25,29,32,50,,,,,2.36,1.48,1.83*15

$GNGSA,A,3,87,88,67,,,,,,,,,,2.36,1.48,1.83*12

$GPGSV,4,1,14,03,22,286,24,04,76,338,24,14,63,144,38,16,48,242,37*7A

$GPGSV,4,2,14,22,24,264,,23,12,318,,25,08,047,12,26,74,288,08*76

$GPGSV,4,3,14,27,11,189,32,29,30,058,22,31,56,036,08,32,36,147,43*77

$GPGSV,4,4,14,42,45,139,33,50,45,139,34*78

$GLGSV,3,1,09,67,39,205,36,68,48,287,18,69,12,330,,77,34,036,*6F

$GLGSV,3,2,09,78,43,319,,79,18,282,,86,04,024,,87,29,074,15*6E

$GLGSV,3,3,09,88,24,129,31*52

$GNGLL,3111.36785,N,12055.85800,E,064552.70,A,D*7E

$GNRMC,064552.80,A,3111.36785,N,12055.85800,E,0.020,,060317,,,D*69

$GNVTG,,T,,M,0.020,N,0.037,K,D*3E

$GNGGA,064552.80,3111.36785,N,12055.85800,E,2,11,1.48,-5.8,M,8.6,M,,0000*51

$GNGSA,A,3,14,27,42,16,25,29,32,50,,,,,2.36,1.48,1.83*15

$GNGSA,A,3,87,88,67,,,,,,,,,,2.36,1.48,1.83*12

$GPGSV,4,1,14,03,22,286,24,04,76,338,24,14,63,144,38,16,48,242,37*7A

$GPGSV,4,2,14,22,24,264,,23,12,318,,25,08,047,12,26,74,288,08*76

$GPGSV,4,3,14,27,11,189,32,29,30,058,22,31,56,036,08,32,36,147,43*77

$GPGSV,4,4,14,42,45,139,33,50,45,139,34*78

$GLGSV,3,1,09,67,39,205,36,68,48,287,18,69,12,330,,77,34,036,*6F

$GLGSV,3,2,09,78,43,319,,79,18,282,,86,04,024,,87,29,074,15*6E

$GLGSV,3,3,09,88,24,129,31*52

$GNGLL,3111.36785,N,12055.85800,E,064552.80,A,D*71

$GNRMC,064552.90,A,3111.36783,N,12055.85800,E,0.019,,060317,,,D*64

$GNVTG,,T,,M,0.019,N,0.035,K,D*36

$GNGGA,064552.90,3111.36783,N,12055.85800,E,2,11,1.48,-5.8,M,8.6,M,,0000*56

$GNGSA,A,3,14,27,42,16,25,29,32,50,,,,,2.36,1.48,1.83*15

$GNGSA,A,3,87,88,67,,,,,,,,,,2.36,1.48,1.83*12

$GPGSV,4,1,14,03,22,286,24,04,76,338,24,14,63,144,38,16,48,242,37*7A

$GPGSV,4,2,14,22,24,264,,23,12,318,,25,08,047,08,26,74,288,09*7C

$GPGSV,4,3,14,27,11,189,32,29,30,058,22,31,56,036,08,32,36,147,43*77

$GPGSV,4,4,14,42,45,139,33,50,45,139,34*78

$GLGSV,3,1,09,67,39,205,36,68,48,287,18,69,12,330,,77,34,036,*6F

$GLGSV,3,2,09,78,43,319,,79,18,282,,86,04,024,,87,29,074,12*69

$GLGSV,3,3,09,88,24,129,31*52

$GNGLL,3111.36783,N,12055.85800,E,064552.90,A,D*76

$GNRMC,064553.00,A,3111.36782,N,12055.85801,E,0.025,,060317,,,D*63

$GNVTG,,T,,M,0.025,N,0.046,K,D*3D

$GNGGA,064553.00,3111.36782,N,12055.85801,E,2,11,1.48,-5.8,M,8.6,M,,0000*5E

$GNGSA,A,3,14,27,42,16,25,29,32,50,,,,,2.36,1.48,1.83*15

$GNGSA,A,3,87,88,67,,,,,,,,,,2.36,1.48,1.83*12

$GPGSV,4,1,14,03,22,286,24,04,76,338,24,14,63,144,38,16,48,242,37*7A

$GPGSV,4,2,14,22,24,264,,23,12,318,,25,08,047,08,26,74,288,09*7C

$GPGSV,4,3,14,27,11,189,32,29,30,058,22,31,56,036,08,32,36,147,43*77

$GPGSV,4,4,14,42,45,139,33,50,45,139,34*78

$GLGSV,3,1,09,67,39,205,36,68,48,287,18,69,12,330,,77,34,036,*6F

$GLGSV,3,2,09,78,43,319,,79,18,282,,86,04,024,,87,29,074,12*69

$GLGSV,3,3,09,88,24,129,31*52

$GNGLL,3111.36782,N,12055.85801,E,064553.00,A,D*7E

$GNRMC,064553.10,A,3111.36783,N,12055.85801,E,0.020,,060317,,,D*66

$GNVTG,,T,,M,0.020,N,0.038,K,D*31

$GNGGA,064553.10,3111.36783,N,12055.85801,E,2,11,1.48,-5.8,M,8.6,M,,0000*5E

$GNGSA,A,3,14,27,42,16,25,29,32,50,,,,,2.36,1.48,1.83*15

$GNGSA,A,3,87,88,67,,,,,,,,,,2.36,1.48,1.83*12

$GPGSV,4,1,14,03,22,286,24,04,76,338,24,14,63,144,38,16,48,242,37*7A

$GPGSV,4,2,14,22,24,264,,23,12,318,,25,08,047,08,26,74,288,10*74

$GPGSV,4,3,14,27,11,189,32,29,30,058,22,31,56,036,08,32,36,147,43*77

$GPGSV,4,4,14,42,45,139,33,50,45,139,34*78

$GLGSV,3,1,09,67,39,205,36,68,48,287,18,69,12,330,,77,34,036,*6F

$GLGSV,3,2,09,78,43,319,,79,18,282,,86,04,024,,87,29,074,12*69

